{"type":"FeatureCollection", "features": [
{"type":"Feature","geometry":{"type":"Point","coordinates":[134.2791446670463,48.36708305471057]},"properties":{"CODE":226,"GB":31060,"TN":200791,"RNAME":"抚远县","MAPTN":"M5314200791","wdd1":"中温带","wwd2":"","qhq1":0,"qhq2":"","qhq":""}},
{"type":"Feature","geometry":{"type":"Point","coordinates":[126.49998774427826,48.244580910447944]},"properties":{"CODE":225,"GB":31050,"TN":204220,"RNAME":"北安市","MAPTN":"M5213204220","wdd1":"中温带","wwd2":"","qhq1":0,"qhq2":"","qhq":""}},
{"type":"Feature","geometry":{"type":"Point","coordinates":[123.46170435070768,48.12485903912896]},"properties":{"CODE":226,"GB":31060,"TN":207081,"RNAME":"阿荣旗","MAPTN":"M5115207081","wdd1":"中温带","wwd2":"","qhq1":0,"qhq2":"","qhq":""}},
{"type":"Feature","geometry":{"type":"Point","coordinates":[123.7240397753964,50.586300122543186]},"properties":{"CODE":226,"GB":31060,"TN":200401,"RNAME":"鄂伦春自治旗","MAPTN":"M5107200401","wdd1":"寒温带","wwd2":"中温带","qhq1":0,"qhq2":"","qhq":""}},
{"type":"Feature","geometry":{"type":"Point","coordinates":[121.52446654668303,50.785224950076284]},"properties":{"CODE":225,"GB":31050,"TN":200171,"RNAME":"根河市","MAPTN":"M5106200171","wdd1":"寒温带","wwd2":"","qhq1":0,"qhq2":"","qhq":""}},
{"type":"Feature","geometry":{"type":"Point","coordinates":[120.18250247830909,50.2447166539065]},"properties":{"CODE":225,"GB":31050,"TN":200781,"RNAME":"额尔古纳市","MAPTN":"M5105200781","wdd1":"寒温带","wwd2":"","qhq1":0,"qhq2":"半干旱区","qhq":""}},
{"type":"Feature","geometry":{"type":"Point","coordinates":[119.4342497566204,49.32270050479698]},"properties":{"CODE":226,"GB":31060,"TN":200631,"RNAME":"陈巴尔虎旗","MAPTN":"M5012200631","wdd1":"","wwd2":"","qhq1":0,"qhq2":"","qhq":"半干旱区"}},
{"type":"Feature","geometry":{"type":"Point","coordinates":[119.74400313092161,49.13943863520593]},"properties":{"CODE":226,"GB":31060,"TN":201441,"RNAME":"鄂温克族自治旗","MAPTN":"M5012201441","wdd1":"","wwd2":"","qhq1":0,"qhq2":"半干旱区","qhq":""}},
{"type":"Feature","geometry":{"type":"Point","coordinates":[86.4194778788726,48.0578582681436]},"properties":{"CODE":226,"GB":31060,"TN":201251,"RNAME":"哈巴河县","MAPTN":"M4514201251","wdd1":"","wwd2":"","qhq1":0,"qhq2":"半干旱区","qhq":"干旱区"}},
{"type":"Feature","geometry":{"type":"Point","coordinates":[132.20507134902945,46.32758756195457]},"properties":{"CODE":226,"GB":31060,"TN":204411,"RNAME":"宝清县","MAPTN":"L5305204411","wdd1":"中温带","wwd2":"","qhq1":0,"qhq2":"","qhq":""}},
{"type":"Feature","geometry":{"type":"Point","coordinates":[132.0278582846762,47.25498340463801]},"properties":{"CODE":225,"GB":31050,"TN":204441,"RNAME":"富锦市","MAPTN":"L5301204441","wdd1":"中温带","wwd2":"","qhq1":0,"qhq2":"","qhq":""}},
{"type":"Feature","geometry":{"type":"Point","coordinates":[131.11680637824264,44.05933624613881]},"properties":{"CODE":226,"GB":31060,"TN":202651,"RNAME":"东宁市","MAPTN":"L5216202651","wdd1":"中温带","wwd2":"","qhq1":0,"qhq2":"","qhq":""}},
{"type":"Feature","geometry":{"type":"Point","coordinates":[129.38318770865644,44.573128702560865]},"properties":{"CODE":225,"GB":31050,"TN":203101,"RNAME":"海林市","MAPTN":"L5215203101","wdd1":"中温带","wwd2":"","qhq1":0,"qhq2":"","qhq":""}},
{"type":"Feature","geometry":{"type":"Point","coordinates":[126.02045978334127,44.98405187114049]},"properties":{"CODE":226,"GB":31060,"TN":200021,"RNAME":"扶余市","MAPTN":"L5213200021","wdd1":"中温带","wwd2":"","qhq1":0,"qhq2":"半干旱区","qhq":""}},
{"type":"Feature","geometry":{"type":"Point","coordinates":[130.56117015847988,45.74887215302738]},"properties":{"CODE":226,"GB":31060,"TN":201921,"RNAME":"勃利县","MAPTN":"L5212201921","wdd1":"中温带","wwd2":"","qhq1":0,"qhq2":"","qhq":""}},
{"type":"Feature","geometry":{"type":"Point","coordinates":[130.77658981353625,45.36083920966509]},"properties":{"CODE":226,"GB":31060,"TN":204430,"RNAME":"滴道区","MAPTN":"L5212204430","wdd1":"中温带","wwd2":"","qhq1":0,"qhq2":"","qhq":""}},
{"type":"Feature","geometry":{"type":"Point","coordinates":[130.9832001192401,45.341420672652966]},"properties":{"CODE":226,"GB":31060,"TN":204601,"RNAME":"城子河区","MAPTN":"L5212204601","wdd1":"中温带","wwd2":"","qhq1":0,"qhq2":"","qhq":""}},
{"type":"Feature","geometry":{"type":"Point","coordinates":[128.82837038088496,45.83607741781649]},"properties":{"CODE":226,"GB":31060,"TN":204641,"RNAME":"方正县","MAPTN":"L5210204641","wdd1":"中温带","wwd2":"","qhq1":0,"qhq2":"","qhq":""}},
{"type":"Feature","geometry":{"type":"Point","coordinates":[127.47922022833966,45.75171949136981]},"properties":{"CODE":226,"GB":31060,"TN":204991,"RNAME":"宾县","MAPTN":"L5209204991","wdd1":"中温带","wwd2":"","qhq1":0,"qhq2":"","qhq":""}},
{"type":"Feature","geometry":{"type":"Point","coordinates":[131.4010472520159,46.57284463358288]},"properties":{"CODE":226,"GB":31060,"TN":241060,"RNAME":"宝山区（双鸭山）","MAPTN":"L5208241060","wdd1":"中温带","wwd2":"","qhq1":0,"qhq2":"","qhq":""}},
{"type":"Feature","geometry":{"type":"Point","coordinates":[127.39749542909126,46.07614410637121]},"properties":{"CODE":226,"GB":31060,"TN":214311,"RNAME":"巴彦县","MAPTN":"L5205214311","wdd1":"中温带","wwd2":"","qhq1":0,"qhq2":"","qhq":""}},
{"type":"Feature","geometry":{"type":"Point","coordinates":[129.01625189459094,47.02520330907587]},"properties":{"CODE":226,"GB":31060,"TN":201330,"RNAME":"带岭区","MAPTN":"L5203201330","wdd1":"中温带","wwd2":"","qhq1":0,"qhq2":"","qhq":""}},
{"type":"Feature","geometry":{"type":"Point","coordinates":[128.6562361206503,47.717935769266504]},"properties":{"CODE":226,"GB":31060,"TN":202840,"RNAME":"翠峦区","MAPTN":"L5202202840","wdd1":"中温带","wwd2":"","qhq1":0,"qhq2":"","qhq":""}},
{"type":"Feature","geometry":{"type":"Point","coordinates":[126.96090270932211,47.459909659284484]},"properties":{"CODE":225,"GB":31050,"TN":205891,"RNAME":"海伦市","MAPTN":"L5201205891","wdd1":"中温带","wwd2":"","qhq1":0,"qhq2":"","qhq":""}},
{"type":"Feature","geometry":{"type":"Point","coordinates":[126.08751122093652,47.605126638231226]},"properties":{"CODE":226,"GB":31060,"TN":204781,"RNAME":"拜泉县","MAPTN":"L5201204781","wdd1":"中温带","wwd2":"","qhq1":0,"qhq2":"","qhq":""}},
{"type":"Feature","geometry":{"type":"Point","coordinates":[125.70481231227366,44.53314298907669]},"properties":{"CODE":225,"GB":31050,"TN":200160,"RNAME":"德惠市","MAPTN":"L5116200160","wdd1":"中温带","wwd2":"","qhq1":0,"qhq2":"","qhq":""}},
{"type":"Feature","geometry":{"type":"Point","coordinates":[124.2847384449506,45.50091204626011]},"properties":{"CODE":225,"GB":31050,"TN":209921,"RNAME":"大安市","MAPTN":"L5111209921","wdd1":"","wwd2":"","qhq1":0,"qhq2":"","qhq":"半干旱区"}},
{"type":"Feature","geometry":{"type":"Point","coordinates":[125.32217717533194,46.4018256624849]},"properties":{"CODE":225,"GB":31050,"TN":206530,"RNAME":"安达市","MAPTN":"L5108206530","wdd1":"中温带","wwd2":"","qhq1":0,"qhq2":"","qhq":"半干旱区"}},
{"type":"Feature","geometry":{"type":"Point","coordinates":[124.81825923757083,46.03359653494421]},"properties":{"CODE":226,"GB":31060,"TN":210471,"RNAME":"大同区","MAPTN":"L5108210471","wdd1":"中温带","wwd2":"","qhq1":0,"qhq2":"","qhq":"半干旱区"}},
{"type":"Feature","geometry":{"type":"Point","coordinates":[124.43805763859359,46.855411909715954]},"properties":{"CODE":226,"GB":31060,"TN":206231,"RNAME":"杜尔伯特蒙古族自治县","MAPTN":"L5107206231","wdd1":"","wwd2":"","qhq1":0,"qhq2":"半干旱区","qhq":""}},
{"type":"Feature","geometry":{"type":"Point","coordinates":[124.45935084329004,47.79341927383836]},"properties":{"CODE":226,"GB":31060,"TN":202251,"RNAME":"富裕县","MAPTN":"L5103202251","wdd1":"中温带","wwd2":"","qhq1":0,"qhq2":"半干旱区","qhq":""}},
{"type":"Feature","geometry":{"type":"Point","coordinates":[123.49951556518941,47.91625232440468]},"properties":{"CODE":226,"GB":31060,"TN":201101,"RNAME":"甘南县","MAPTN":"L5103201101","wdd1":"中温带","wwd2":"","qhq1":0,"qhq2":"半干旱区","qhq":""}},
{"type":"Feature","geometry":{"type":"Point","coordinates":[123.62170011308474,47.20634862499374]},"properties":{"CODE":226,"GB":31060,"TN":206910,"RNAME":"富拉尔基区","MAPTN":"L5103206910","wdd1":"","wwd2":"","qhq1":0,"qhq2":"半干旱区","qhq":""}},
{"type":"Feature","geometry":{"type":"Point","coordinates":[123.80666660138465,47.15642571338569]},"properties":{"CODE":226,"GB":31060,"TN":207000,"RNAME":"昂昂溪区","MAPTN":"L5103207000","wdd1":"","wwd2":"","qhq1":0,"qhq2":"","qhq":"半干旱区"}},
{"type":"Feature","geometry":{"type":"Point","coordinates":[114.96228790271384,44.01919937133782]},"properties":{"CODE":226,"GB":31060,"TN":200971,"RNAME":"阿巴嘎旗","MAPTN":"L5013200971","wdd1":"","wwd2":"","qhq1":0,"qhq2":"干旱区","qhq":"半干旱区"}},
{"type":"Feature","geometry":{"type":"Point","coordinates":[116.9692077590153,45.51317214982822]},"properties":{"CODE":226,"GB":31060,"TN":200171,"RNAME":"东乌珠穆沁旗","MAPTN":"L5010200171","wdd1":"中温带","wwd2":"","qhq1":0,"qhq2":"半干旱区","qhq":""}},
{"type":"Feature","geometry":{"type":"Point","coordinates":[87.9846497004982,44.15451479372929]},"properties":{"CODE":225,"GB":31050,"TN":201580,"RNAME":"阜康市","MAPTN":"L4515201580","wdd1":"","wwd2":"","qhq1":0,"qhq2":"半干旱区","qhq":"干旱区"}},
{"type":"Feature","geometry":{"type":"Point","coordinates":[84.8484950352237,44.31649070603415]},"properties":{"CODE":227,"GB":31061,"TN":209510,"RNAME":"独山子区","MAPTN":"L4513209510","wdd1":"","wwd2":"","qhq1":0,"qhq2":"干旱区","qhq":""}},
{"type":"Feature","geometry":{"type":"Point","coordinates":[89.52083107993585,46.99119439142512]},"properties":{"CODE":226,"GB":31060,"TN":200141,"RNAME":"富蕴县","MAPTN":"L4508200141","wdd1":"","wwd2":"","qhq1":0,"qhq2":"半干旱区","qhq":"干旱区"}},
{"type":"Feature","geometry":{"type":"Point","coordinates":[85.72661409431083,46.7917343099153]},"properties":{"CODE":226,"GB":31060,"TN":200211,"RNAME":"和布克赛尔蒙古自治县","MAPTN":"L4506200211","wdd1":"","wwd2":"","qhq1":0,"qhq2":"干旱区","qhq":""}},
{"type":"Feature","geometry":{"type":"Point","coordinates":[87.49412352382262,47.10760963248331]},"properties":{"CODE":226,"GB":31060,"TN":202941,"RNAME":"福海县","MAPTN":"L4503202941","wdd1":"","wwd2":"","qhq1":0,"qhq2":"半干旱区","qhq":"干旱区"}},
{"type":"Feature","geometry":{"type":"Point","coordinates":[86.86249014093625,47.7016920079695]},"properties":{"CODE":226,"GB":31060,"TN":201111,"RNAME":"布尔津县","MAPTN":"L4502201111","wdd1":"","wwd2":"","qhq1":0,"qhq2":"干旱区","qhq":"半干旱区"}},
{"type":"Feature","geometry":{"type":"Point","coordinates":[83.62638889390506,46.52628816512219]},"properties":{"CODE":226,"GB":31060,"TN":202531,"RNAME":"额敏县","MAPTN":"L4408202531","wdd1":"","wwd2":"","qhq1":0,"qhq2":"半干旱区","qhq":"干旱区"}},
{"type":"Feature","geometry":{"type":"Point","coordinates":[129.00446386995768,42.54022882528054]},"properties":{"CODE":225,"GB":31050,"TN":207480,"RNAME":"和龙市","MAPTN":"K5207207480","wdd1":"中温带","wwd2":"","qhq1":0,"qhq2":"","qhq":""}},
{"type":"Feature","geometry":{"type":"Point","coordinates":[127.26978943189849,42.32676933424105]},"properties":{"CODE":226,"GB":31060,"TN":205801,"RNAME":"抚松县","MAPTN":"K5205205801","wdd1":"中温带","wwd2":"","qhq1":0,"qhq2":"","qhq":""}},
{"type":"Feature","geometry":{"type":"Point","coordinates":[128.22630663929783,43.36457494063998]},"properties":{"CODE":225,"GB":31050,"TN":206100,"RNAME":"敦化市","MAPTN":"K5202206100","wdd1":"中温带","wwd2":"","qhq1":0,"qhq2":"","qhq":""}},
{"type":"Feature","geometry":{"type":"Point","coordinates":[128.91205804272926,43.107645710778215]},"properties":{"CODE":226,"GB":31060,"TN":202301,"RNAME":"安图县","MAPTN":"K5202202301","wdd1":"中温带","wwd2":"","qhq1":0,"qhq2":"","qhq":""}},
{"type":"Feature","geometry":{"type":"Point","coordinates":[124.06618896180582,40.45891596050628]},"properties":{"CODE":225,"GB":31050,"TN":213000,"RNAME":"凤城市","MAPTN":"K5115213000","wdd1":"中温带","wwd2":"","qhq1":0,"qhq2":"","qhq":""}},
{"type":"Feature","geometry":{"type":"Point","coordinates":[122.0611487789243,40.993877460621064]},"properties":{"CODE":226,"GB":31060,"TN":206501,"RNAME":"大洼区","MAPTN":"K5114206501","wdd1":"暖温带","wwd2":"","qhq1":0,"qhq2":"","qhq":""}},
{"type":"Feature","geometry":{"type":"Point","coordinates":[122.7466263990996,40.852787106772055]},"properties":{"CODE":225,"GB":31050,"TN":206600,"RNAME":"海城市","MAPTN":"K5114206600","wdd1":"暖温带","wwd2":"","qhq1":0,"qhq2":"","qhq":""}},
{"type":"Feature","geometry":{"type":"Point","coordinates":[122.35780234552284,40.40145498846689]},"properties":{"CODE":225,"GB":31050,"TN":206620,"RNAME":"盖州市","MAPTN":"K5114206620","wdd1":"暖温带","wwd2":"","qhq1":0,"qhq2":"","qhq":""}},
{"type":"Feature","geometry":{"type":"Point","coordinates":[122.50079231640622,40.63149650118678]},"properties":{"CODE":225,"GB":31050,"TN":206610,"RNAME":"大石桥市","MAPTN":"K5114206610","wdd1":"暖温带","wwd2":"","qhq1":0,"qhq2":"","qhq":""}},
{"type":"Feature","geometry":{"type":"Point","coordinates":[123.31623613493583,41.430004264179054]},"properties":{"CODE":226,"GB":31060,"TN":210371,"RNAME":"灯塔市","MAPTN":"K5111210371","wdd1":"暖温带","wwd2":"","qhq1":0,"qhq2":"","qhq":""}},
{"type":"Feature","geometry":{"type":"Point","coordinates":[124.11912133833977,41.30098751141439]},"properties":{"CODE":226,"GB":31060,"TN":210501,"RNAME":"本溪满族自治县","MAPTN":"K5111210501","wdd1":"中温带","wwd2":"","qhq1":0,"qhq2":"","qhq":""}},
{"type":"Feature","geometry":{"type":"Point","coordinates":[120.76106997459182,41.80817033391359]},"properties":{"CODE":225,"GB":31050,"TN":218100,"RNAME":"北票市","MAPTN":"K5109218100","wdd1":"","wwd2":"","qhq1":0,"qhq2":"","qhq":"半干旱区"}},
{"type":"Feature","geometry":{"type":"Point","coordinates":[124.99613141437766,42.921692426273076]},"properties":{"CODE":206,"GB":31060,"TN":212101,"RNAME":"东辽县","MAPTN":"K5108212101","wdd1":"中温带","wwd2":"","qhq1":0,"qhq2":"","qhq":""}},
{"type":"Feature","geometry":{"type":"Point","coordinates":[125.52498263207828,42.67313079992096]},"properties":{"CODE":226,"GB":31060,"TN":211211,"RNAME":"东丰县","MAPTN":"K5108211211","wdd1":"中温带","wwd2":"","qhq1":0,"qhq2":"","qhq":""}},
{"type":"Feature","geometry":{"type":"Point","coordinates":[124.11334550451053,42.77857998993323]},"properties":{"CODE":226,"GB":31060,"TN":211191,"RNAME":"昌图县","MAPTN":"K5107211191","wdd1":"中温带","wwd2":"","qhq1":0,"qhq2":"","qhq":""}},
{"type":"Feature","geometry":{"type":"Point","coordinates":[123.40736128548475,42.504413764869625]},"properties":{"CODE":226,"GB":31060,"TN":211221,"RNAME":"法库县","MAPTN":"K5107211221","wdd1":"","wwd2":"","qhq1":0,"qhq2":"半干旱区","qhq":""}},
{"type":"Feature","geometry":{"type":"Point","coordinates":[121.73444299330866,42.05578998605572]},"properties":{"CODE":226,"GB":31060,"TN":213331,"RNAME":"阜新蒙古族自治县","MAPTN":"K5106213331","wdd1":"","wwd2":"","qhq1":0,"qhq2":"半干旱区","qhq":""}},
{"type":"Feature","geometry":{"type":"Point","coordinates":[124.81101246949993,43.507828231034935]},"properties":{"CODE":225,"GB":31050,"TN":206410,"RNAME":"公主岭市","MAPTN":"K5104206410","wdd1":"中温带","wwd2":"","qhq1":0,"qhq2":"半干旱区","qhq":""}},
{"type":"Feature","geometry":{"type":"Point","coordinates":[120.08525831556256,43.87707520351376]},"properties":{"CODE":226,"GB":31060,"TN":200681,"RNAME":"阿鲁科尔沁旗","MAPTN":"K5101200681","wdd1":"","wwd2":"","qhq1":0,"qhq2":"","qhq":"半干旱区"}},
{"type":"Feature","geometry":{"type":"Point","coordinates":[118.16757963578209,40.768234253722326]},"properties":{"CODE":226,"GB":31060,"TN":240521,"RNAME":"承德县","MAPTN":"K5015240521","wdd1":"暖温带","wwd2":"","qhq1":0,"qhq2":"","qhq":""}},
{"type":"Feature","geometry":{"type":"Point","coordinates":[115.82277679402429,40.91099929811382]},"properties":{"CODE":226,"GB":31060,"TN":240011,"RNAME":"赤城县","MAPTN":"K5014240011","wdd1":"暖温带","wwd2":"","qhq1":0,"qhq2":"","qhq":"半干旱区"}},
{"type":"Feature","geometry":{"type":"Point","coordinates":[116.22606658859173,40.2173690796293]},"properties":{"CODE":226,"GB":31060,"TN":241991,"RNAME":"昌平区","MAPTN":"K5014241991","wdd1":"暖温带","wwd2":"","qhq1":0,"qhq2":"","qhq":"半干旱区"}},
{"type":"Feature","geometry":{"type":"Point","coordinates":[115.27398681626948,40.97381973266967]},"properties":{"CODE":226,"GB":31060,"TN":212011,"RNAME":"崇礼区","MAPTN":"K5013212011","wdd1":"暖温带","wwd2":"","qhq1":0,"qhq2":"","qhq":"半干旱区"}},
{"type":"Feature","geometry":{"type":"Point","coordinates":[115.69240570032125,41.67089462281665]},"properties":{"CODE":226,"GB":31060,"TN":215131,"RNAME":"沽源县","MAPTN":"K5010215131","wdd1":"暖温带","wwd2":"","qhq1":0,"qhq2":"半干旱区","qhq":""}},
{"type":"Feature","geometry":{"type":"Point","coordinates":[116.63455200018112,41.211246490564704]},"properties":{"CODE":226,"GB":31060,"TN":215141,"RNAME":"丰宁满族自治县","MAPTN":"K5010215141","wdd1":"暖温带","wwd2":"","qhq1":0,"qhq2":"半干旱区","qhq":""}},
{"type":"Feature","geometry":{"type":"Point","coordinates":[119.89738451977674,42.28543472933377]},"properties":{"CODE":226,"GB":31060,"TN":210691,"RNAME":"敖汉旗","MAPTN":"K5008210691","wdd1":"","wwd2":"","qhq1":0,"qhq2":"","qhq":"半干旱区"}},
{"type":"Feature","geometry":{"type":"Point","coordinates":[116.4731445297026,42.18533706671895]},"properties":{"CODE":226,"GB":31060,"TN":205861,"RNAME":"多伦县","MAPTN":"K5006205861","wdd1":"","wwd2":"","qhq1":0,"qhq2":"半干旱区","qhq":""}},
{"type":"Feature","geometry":{"type":"Point","coordinates":[119.38513938273148,43.980812076609844]},"properties":{"CODE":226,"GB":31060,"TN":200211,"RNAME":"巴林左旗","MAPTN":"K5004200211","wdd1":"","wwd2":"","qhq1":0,"qhq2":"","qhq":"半干旱区"}},
{"type":"Feature","geometry":{"type":"Point","coordinates":[118.66712185139608,43.52391052410982]},"properties":{"CODE":226,"GB":31060,"TN":204021,"RNAME":"巴林右旗","MAPTN":"K5004204021","wdd1":"","wwd2":"","qhq1":0,"qhq2":"","qhq":"半干旱区"}},
{"type":"Feature","geometry":{"type":"Point","coordinates":[113.15623474121071,40.43969345092393]},"properties":{"CODE":225,"GB":31050,"TN":206730,"RNAME":"丰镇市","MAPTN":"K4916206730","wdd1":"","wwd2":"","qhq1":0,"qhq2":"半干旱区","qhq":""}},
{"type":"Feature","geometry":{"type":"Point","coordinates":[113.2110519409176,40.781074523921866]},"properties":{"CODE":226,"GB":31060,"TN":203451,"RNAME":"察哈尔右翼前旗","MAPTN":"K4916203451","wdd1":"","wwd2":"","qhq1":0,"qhq2":"","qhq":"半干旱区"}},
{"type":"Feature","geometry":{"type":"Point","coordinates":[113.59877777099528,40.03771209716441]},"properties":{"CODE":226,"GB":31060,"TN":211751,"RNAME":"大同县","MAPTN":"K4916211751","wdd1":"","wwd2":"","qhq1":0,"qhq2":"","qhq":"半干旱区"}},
{"type":"Feature","geometry":{"type":"Point","coordinates":[111.82500457763668,40.37921142577745]},"properties":{"CODE":226,"GB":31060,"TN":212331,"RNAME":"和林格尔县","MAPTN":"K4915212331","wdd1":"","wwd2":"","qhq1":0,"qhq2":"半干旱区","qhq":""}},
{"type":"Feature","geometry":{"type":"Point","coordinates":[110.02062988281256,40.583457946773486]},"properties":{"CODE":227,"GB":31061,"TN":206600,"RNAME":"东河区","MAPTN":"K4914206600","wdd1":"","wwd2":"","qhq1":0,"qhq2":"半干旱区","qhq":""}},
{"type":"Feature","geometry":{"type":"Point","coordinates":[110.03014373779303,40.40508651733018]},"properties":{"CODE":226,"GB":31060,"TN":209601,"RNAME":"达拉特旗","MAPTN":"K4914209601","wdd1":"","wwd2":"","qhq1":0,"qhq2":"","qhq":"半干旱区"}},
{"type":"Feature","geometry":{"type":"Point","coordinates":[113.17867279052687,41.45252609252516]},"properties":{"CODE":226,"GB":31060,"TN":204711,"RNAME":"察哈尔右翼后旗","MAPTN":"K4912204711","wdd1":"","wwd2":"","qhq1":0,"qhq2":"","qhq":"半干旱区"}},
{"type":"Feature","geometry":{"type":"Point","coordinates":[112.62590789794912,41.27242660522051]},"properties":{"CODE":226,"GB":31060,"TN":206021,"RNAME":"察哈尔右翼中旗","MAPTN":"K4912206021","wdd1":"","wwd2":"","qhq1":0,"qhq2":"","qhq":"半干旱区"}},
{"type":"Feature","geometry":{"type":"Point","coordinates":[110.43085479736332,41.700145721431326]},"properties":{"CODE":226,"GB":31060,"TN":201931,"RNAME":"达尔罕茂明安联合旗","MAPTN":"K4910201931","wdd1":"","wwd2":"","qhq1":0,"qhq2":"","qhq":"半干旱区"}},
{"type":"Feature","geometry":{"type":"Point","coordinates":[110.05509948730476,41.02844619750574]},"properties":{"CODE":226,"GB":31060,"TN":207121,"RNAME":"固阳县","MAPTN":"K4910207121","wdd1":"","wwd2":"","qhq1":0,"qhq2":"半干旱区","qhq":""}},
{"type":"Feature","geometry":{"type":"Point","coordinates":[109.96098327636724,41.769718170161774]},"properties":{"CODE":227,"GB":31061,"TN":207520,"RNAME":"白云鄂博矿区","MAPTN":"K4910207520","wdd1":"","wwd2":"","qhq1":0,"qhq2":"","qhq":"半干旱区"}},
{"type":"Feature","geometry":{"type":"Point","coordinates":[111.97312927246087,43.65241241454615]},"properties":{"CODE":225,"GB":31050,"TN":200260,"RNAME":"二连浩特市","MAPTN":"K4903200260","wdd1":"","wwd2":"","qhq1":0,"qhq2":"干旱区","qhq":""}},
{"type":"Feature","geometry":{"type":"Point","coordinates":[107.13813781743558,40.88685607910074]},"properties":{"CODE":226,"GB":31060,"TN":202201,"RNAME":"杭锦后旗","MAPTN":"K4816202201","wdd1":"","wwd2":"","qhq1":0,"qhq2":"干旱区","qhq":""}},
{"type":"Feature","geometry":{"type":"Point","coordinates":[107.0014343262351,40.32597732543977]},"properties":{"CODE":226,"GB":31060,"TN":207651,"RNAME":"磴口县","MAPTN":"K4816207651","wdd1":"","wwd2":"","qhq1":0,"qhq2":"","qhq":"干旱区"}},
{"type":"Feature","geometry":{"type":"Point","coordinates":[101.06855806710932,41.95774461655375]},"properties":{"CODE":226,"GB":31060,"TN":200181,"RNAME":"额济纳旗","MAPTN":"K4712200181","wdd1":"","wwd2":"","qhq1":0,"qhq2":"干旱区","qhq":"极干旱区"}},
{"type":"Feature","geometry":{"type":"Point","coordinates":[94.66358781145556,40.13876955757462]},"properties":{"CODE":225,"GB":31050,"TN":202150,"RNAME":"敦煌市","MAPTN":"K4616202150","wdd1":"","wwd2":"","qhq1":0,"qhq2":"干旱区","qhq":"极干旱区"}},
{"type":"Feature","geometry":{"type":"Point","coordinates":[93.01071529005358,43.59675510646626]},"properties":{"CODE":206,"GB":31060,"TN":202831,"RNAME":"巴里坤哈萨克自治县","MAPTN":"K4603202831","wdd1":"","wwd2":"","qhq1":0,"qhq2":"","qhq":"干旱区"}},
{"type":"Feature","geometry":{"type":"Point","coordinates":[86.63320436469613,41.97887634679697]},"properties":{"CODE":206,"GB":31060,"TN":200291,"RNAME":"博湖县","MAPTN":"K4510200291","wdd1":"","wwd2":"","qhq1":0,"qhq2":"","qhq":"干旱区"}},
{"type":"Feature","geometry":{"type":"Point","coordinates":[86.39851139528601,42.315606289279685]},"properties":{"CODE":226,"GB":31060,"TN":200761,"RNAME":"和静县","MAPTN":"K4506200761","wdd1":"","wwd2":"","qhq1":0,"qhq2":"半干旱区","qhq":"干旱区"}},
{"type":"Feature","geometry":{"type":"Point","coordinates":[86.86218005117564,42.25678597662079]},"properties":{"CODE":226,"GB":31060,"TN":200881,"RNAME":"和硕县","MAPTN":"K4506200881","wdd1":"","wwd2":"","qhq1":0,"qhq2":"干旱区","qhq":"极干旱区"}},
{"type":"Feature","geometry":{"type":"Point","coordinates":[80.39137524540075,40.64157033829116]},"properties":{"CODE":226,"GB":31060,"TN":201601,"RNAME":"阿瓦提县","MAPTN":"K4414201601","wdd1":"","wwd2":"","qhq1":0,"qhq2":"","qhq":"干旱区"}},
{"type":"Feature","geometry":{"type":"Point","coordinates":[78.47575279769018,40.93922650765655]},"properties":{"CODE":226,"GB":31060,"TN":200231,"RNAME":"阿合奇县","MAPTN":"K4413200231","wdd1":"","wwd2":"","qhq1":0,"qhq2":"","qhq":"干旱区"}},
{"type":"Feature","geometry":{"type":"Point","coordinates":[81.87791052870283,41.797579160222874]},"properties":{"CODE":226,"GB":31060,"TN":200801,"RNAME":"拜城县","MAPTN":"K4411200801","wdd1":"","wwd2":"","qhq1":0,"qhq2":"干旱区","qhq":"半干旱区"}},
{"type":"Feature","geometry":{"type":"Point","coordinates":[81.16563288523912,43.83899222603193]},"properties":{"CODE":226,"GB":31060,"TN":201500,"RNAME":"察布查尔锡伯自治县","MAPTN":"K4403201500","wdd1":"","wwd2":"","qhq1":0,"qhq2":"干旱区","qhq":"半干旱区"}},
{"type":"Feature","geometry":{"type":"Point","coordinates":[82.23562628701218,43.47914625426535]},"properties":{"CODE":226,"GB":31060,"TN":204091,"RNAME":"巩留县","MAPTN":"K4403204091","wdd1":"","wwd2":"","qhq1":0,"qhq2":"半干旱区","qhq":""}},
{"type":"Feature","geometry":{"type":"Point","coordinates":[121.16065953014903,36.77717973538308]},"properties":{"CODE":226,"GB":31060,"TN":206181,"RNAME":"海阳县","MAPTN":"J5113206181","wdd1":"暖温带","wwd2":"","qhq1":0,"qhq2":"","qhq":""}},
{"type":"Feature","geometry":{"type":"Point","coordinates":[121.25499694987955,37.4949684342934]},"properties":{"CODE":226,"GB":31060,"TN":210681,"RNAME":"福山区","MAPTN":"J5109210681","wdd1":"暖温带","wwd2":"","qhq1":0,"qhq2":"","qhq":""}},
{"type":"Feature","geometry":{"type":"Point","coordinates":[124.14302454248941,39.8793833465077]},"properties":{"CODE":225,"GB":31050,"TN":203740,"RNAME":"东港区","MAPTN":"J5103203740","wdd1":"暖温带","wwd2":"","qhq1":0,"qhq2":"","qhq":""}},
{"type":"Feature","geometry":{"type":"Point","coordinates":[119.76110070828096,36.38434601224042]},"properties":{"CODE":225,"GB":31050,"TN":219440,"RNAME":"高密市","MAPTN":"J5016219440","wdd1":"暖温带","wwd2":"","qhq1":0,"qhq2":"","qhq":""}},
{"type":"Feature","geometry":{"type":"Point","coordinates":[119.20900722914828,36.77256393649568]},"properties":{"CODE":226,"GB":31060,"TN":219241,"RNAME":"寒亭区","MAPTN":"J5016219241","wdd1":"暖温带","wwd2":"","qhq1":0,"qhq2":"半干旱区","qhq":""}},
{"type":"Feature","geometry":{"type":"Point","coordinates":[119.3920592836908,36.854244234882984]},"properties":{"CODE":225,"GB":31050,"TN":218980,"RNAME":"昌邑市","MAPTN":"J5016218980","wdd1":"暖温带","wwd2":"","qhq1":0,"qhq2":"","qhq":"半干旱区"}},
{"type":"Feature","geometry":{"type":"Point","coordinates":[119.19441219938315,36.430740358509915]},"properties":{"CODE":225,"GB":31050,"TN":219401,"RNAME":"安丘市","MAPTN":"J5016219401","wdd1":"暖温带","wwd2":"","qhq1":0,"qhq2":"","qhq":""}},
{"type":"Feature","geometry":{"type":"Point","coordinates":[118.83118436579853,36.704986573633384]},"properties":{"CODE":226,"GB":31060,"TN":219011,"RNAME":"昌乐县","MAPTN":"J5016219011","wdd1":"暖温带","wwd2":"","qhq1":0,"qhq2":"","qhq":"半干旱区"}},
{"type":"Feature","geometry":{"type":"Point","coordinates":[119.15888210972807,36.59517288409114]},"properties":{"CODE":226,"GB":31060,"TN":219341,"RNAME":"坊子区","MAPTN":"J5016219341","wdd1":"暖温带","wwd2":"","qhq1":0,"qhq2":"","qhq":""}},
{"type":"Feature","geometry":{"type":"Point","coordinates":[117.85319518483611,36.5001373294729]},"properties":{"CODE":226,"GB":31060,"TN":208620,"RNAME":"博山区","MAPTN":"J5015208620","wdd1":"暖温带","wwd2":"","qhq1":0,"qhq2":"","qhq":""}},
{"type":"Feature","geometry":{"type":"Point","coordinates":[116.22361755335507,36.85731506350497]},"properties":{"CODE":226,"GB":31060,"TN":218561,"RNAME":"高唐县","MAPTN":"J5014218561","wdd1":"暖温带","wwd2":"","qhq1":0,"qhq2":"半干旱区","qhq":""}},
{"type":"Feature","geometry":{"type":"Point","coordinates":[116.2419586178527,36.332515716580005]},"properties":{"CODE":226,"GB":31060,"TN":219881,"RNAME":"东阿县","MAPTN":"J5014219881","wdd1":"暖温带","wwd2":"","qhq1":0,"qhq2":"","qhq":""}},
{"type":"Feature","geometry":{"type":"Point","coordinates":[116.76548004063429,36.184963226386095]},"properties":{"CODE":225,"GB":31050,"TN":220120,"RNAME":"肥城市","MAPTN":"J5014220120","wdd1":"暖温带","wwd2":"","qhq1":0,"qhq2":"","qhq":""}},
{"type":"Feature","geometry":{"type":"Point","coordinates":[115.14558410643818,36.2781486511245]},"properties":{"CODE":226,"GB":31060,"TN":213971,"RNAME":"大名县","MAPTN":"J5013213971","wdd1":"","wwd2":"","qhq1":0,"qhq2":"","qhq":"半干旱区"}},
{"type":"Feature","geometry":{"type":"Point","coordinates":[114.37451171875482,36.35855102538925]},"properties":{"CODE":226,"GB":31060,"TN":214201,"RNAME":"磁县","MAPTN":"J5013214201","wdd1":"","wwd2":"","qhq1":0,"qhq2":"","qhq":"半干旱区"}},
{"type":"Feature","geometry":{"type":"Point","coordinates":[114.69278717041362,36.44061660766528]},"properties":{"CODE":226,"GB":31060,"TN":214431,"RNAME":"成安县","MAPTN":"J5013214431","wdd1":"","wwd2":"","qhq1":0,"qhq2":"","qhq":"半干旱区"}},
{"type":"Feature","geometry":{"type":"Point","coordinates":[114.94447326659972,36.48410797119164]},"properties":{"CODE":226,"GB":31060,"TN":214521,"RNAME":"广平县","MAPTN":"J5013214521","wdd1":"","wwd2":"","qhq1":0,"qhq2":"半干旱区","qhq":""}},
{"type":"Feature","geometry":{"type":"Point","coordinates":[115.44057464595788,36.47889709473107]},"properties":{"CODE":226,"GB":31060,"TN":214541,"RNAME":"冠县","MAPTN":"J5013214541","wdd1":"暖温带","wwd2":"","qhq1":0,"qhq2":"半干旱区","qhq":""}},
{"type":"Feature","geometry":{"type":"Point","coordinates":[115.29389190671505,36.53553771972938]},"properties":{"CODE":226,"GB":31060,"TN":214661,"RNAME":"馆陶县","MAPTN":"J5013214661","wdd1":"","wwd2":"","qhq1":0,"qhq2":"半干旱区","qhq":""}},
{"type":"Feature","geometry":{"type":"Point","coordinates":[114.80075836181742,36.55211257934529]},"properties":{"CODE":226,"GB":31060,"TN":214751,"RNAME":"肥乡区","MAPTN":"J5013214751","wdd1":"","wwd2":"","qhq1":0,"qhq2":"半干旱区","qhq":""}},
{"type":"Feature","geometry":{"type":"Point","coordinates":[118.52662656988542,37.8829956065086]},"properties":{"CODE":226,"GB":31060,"TN":200250,"RNAME":"河口区","MAPTN":"J5012200250","wdd1":"","wwd2":"","qhq1":0,"qhq2":"半干旱区","qhq":""}},
{"type":"Feature","geometry":{"type":"Point","coordinates":[118.533340437826,37.465808869420265]},"properties":{"CODE":226,"GB":31060,"TN":202080,"RNAME":"东营区","MAPTN":"J5012202080","wdd1":"","wwd2":"","qhq1":0,"qhq2":"半干旱区","qhq":""}},
{"type":"Feature","geometry":{"type":"Point","coordinates":[117.82398986218615,37.17091751136996]},"properties":{"CODE":226,"GB":31060,"TN":212781,"RNAME":"高青县","MAPTN":"J5011212781","wdd1":"暖温带","wwd2":"","qhq1":0,"qhq2":"","qhq":""}},
{"type":"Feature","geometry":{"type":"Point","coordinates":[118.13536070856726,37.140735626805686]},"properties":{"CODE":226,"GB":31060,"TN":214881,"RNAME":"博兴县","MAPTN":"J5011214881","wdd1":"暖温带","wwd2":"","qhq1":0,"qhq2":"","qhq":""}},
{"type":"Feature","geometry":{"type":"Point","coordinates":[118.39958952562874,37.051227570400776]},"properties":{"CODE":226,"GB":31060,"TN":217531,"RNAME":"广饶县","MAPTN":"J5011217531","wdd1":"暖温带","wwd2":"","qhq1":0,"qhq2":"半干旱区","qhq":""}},
{"type":"Feature","geometry":{"type":"Point","coordinates":[116.52745819007816,37.883796691950316]},"properties":{"CODE":226,"GB":31060,"TN":219741,"RNAME":"东光县","MAPTN":"J5010219741","wdd1":"","wwd2":"","qhq1":0,"qhq2":"半干旱区","qhq":""}},
{"type":"Feature","geometry":{"type":"Point","coordinates":[115.9683151242728,37.3439750671569]},"properties":{"CODE":226,"GB":31060,"TN":220201,"RNAME":"故城县","MAPTN":"J5010220201","wdd1":"","wwd2":"","qhq1":0,"qhq2":"半干旱区","qhq":""}},
{"type":"Feature","geometry":{"type":"Point","coordinates":[116.14907836873437,37.8701782226841]},"properties":{"CODE":226,"GB":31060,"TN":220211,"RNAME":"阜城县","MAPTN":"J5010220211","wdd1":"","wwd2":"","qhq1":0,"qhq2":"半干旱区","qhq":""}},
{"type":"Feature","geometry":{"type":"Point","coordinates":[115.14377593991979,37.07179260254061]},"properties":{"CODE":226,"GB":31060,"TN":212351,"RNAME":"广宗县","MAPTN":"J5009212351","wdd1":"","wwd2":"","qhq1":0,"qhq2":"半干旱区","qhq":""}},
{"type":"Feature","geometry":{"type":"Point","coordinates":[114.66430664062096,37.487056732176605]},"properties":{"CODE":226,"GB":31060,"TN":212401,"RNAME":"柏乡县","MAPTN":"J5009212401","wdd1":"","wwd2":"","qhq1":0,"qhq2":"","qhq":"半干旱区"}},
{"type":"Feature","geometry":{"type":"Point","coordinates":[114.59910583495753,37.6024208068834]},"properties":{"CODE":226,"GB":31060,"TN":212411,"RNAME":"高邑县","MAPTN":"J5009212411","wdd1":"暖温带","wwd2":"","qhq1":0,"qhq2":"半干旱区","qhq":""}},
{"type":"Feature","geometry":{"type":"Point","coordinates":[117.49241637755355,38.141815185809655]},"properties":{"CODE":226,"GB":31060,"TN":206931,"RNAME":"海兴县","MAPTN":"J5007206931","wdd1":"","wwd2":"","qhq1":0,"qhq2":"半干旱区","qhq":""}},
{"type":"Feature","geometry":{"type":"Point","coordinates":[115.92392730679434,38.92039108278325]},"properties":{"CODE":226,"GB":31060,"TN":216781,"RNAME":"安新县","MAPTN":"J5006216781","wdd1":"","wwd2":"","qhq1":0,"qhq2":"","qhq":"半干旱区"}},
{"type":"Feature","geometry":{"type":"Point","coordinates":[115.77094268775771,38.687099456800794]},"properties":{"CODE":226,"GB":31060,"TN":217151,"RNAME":"高阳县","MAPTN":"J5006217151","wdd1":"","wwd2":"","qhq1":0,"qhq2":"半干旱区","qhq":""}},
{"type":"Feature","geometry":{"type":"Point","coordinates":[115.50820922840381,38.228801727301665]},"properties":{"CODE":226,"GB":31060,"TN":217861,"RNAME":"安平县","MAPTN":"J5006217861","wdd1":"","wwd2":"","qhq1":0,"qhq2":"","qhq":"半干旱区"}},
{"type":"Feature","geometry":{"type":"Point","coordinates":[116.56660461332024,38.06996154791241]},"properties":{"CODE":225,"GB":31050,"TN":218050,"RNAME":"泊头市","MAPTN":"J5006218050","wdd1":"","wwd2":"","qhq1":0,"qhq2":"","qhq":"半干旱区"}},
{"type":"Feature","geometry":{"type":"Point","coordinates":[116.09497070270541,38.437202453639856]},"properties":{"CODE":225,"GB":31050,"TN":218481,"RNAME":"河间市","MAPTN":"J5006218481","wdd1":"","wwd2":"","qhq1":0,"qhq2":"半干旱区","qhq":""}},
{"type":"Feature","geometry":{"type":"Point","coordinates":[114.83412933348062,38.03044509887641]},"properties":{"CODE":225,"GB":31050,"TN":213001,"RNAME":"藁城区","MAPTN":"J5005213001","wdd1":"","wwd2":"","qhq1":0,"qhq2":"半干旱区","qhq":""}},
{"type":"Feature","geometry":{"type":"Point","coordinates":[115.3168258666243,38.4116668701209]},"properties":{"CODE":225,"GB":31050,"TN":213011,"RNAME":"安国市","MAPTN":"J5005213011","wdd1":"","wwd2":"","qhq1":0,"qhq2":"","qhq":"半干旱区"}},
{"type":"Feature","geometry":{"type":"Point","coordinates":[114.19065093993869,38.847721099850844]},"properties":{"CODE":226,"GB":31060,"TN":213060,"RNAME":"阜平县","MAPTN":"J5005213060","wdd1":"暖温带","wwd2":"","qhq1":0,"qhq2":"","qhq":""}},
{"type":"Feature","geometry":{"type":"Point","coordinates":[115.46061706532178,38.45753860474232]},"properties":{"CODE":226,"GB":31060,"TN":213081,"RNAME":"博野县","MAPTN":"J5005213081","wdd1":"","wwd2":"","qhq1":0,"qhq2":"","qhq":"半干旱区"}},
{"type":"Feature","geometry":{"type":"Point","coordinates":[114.54536437987525,38.435333251951334]},"properties":{"CODE":226,"GB":31060,"TN":213091,"RNAME":"行唐县","MAPTN":"J5005213091","wdd1":"暖温带","wwd2":"","qhq1":0,"qhq2":"半干旱区","qhq":""}},
{"type":"Feature","geometry":{"type":"Point","coordinates":[114.97702026364001,38.51971817016627]},"properties":{"CODE":225,"GB":31050,"TN":215610,"RNAME":"定州市","MAPTN":"J5005215610","wdd1":"","wwd2":"","qhq1":0,"qhq2":"","qhq":"半干旱区"}},
{"type":"Feature","geometry":{"type":"Point","coordinates":[119.2293014035387,39.886035921961586]},"properties":{"CODE":226,"GB":31060,"TN":240381,"RNAME":"抚宁区","MAPTN":"J5004240381","wdd1":"暖温带","wwd2":"","qhq1":0,"qhq2":"","qhq":""}},
{"type":"Feature","geometry":{"type":"Point","coordinates":[119.16224665937776,39.70816421762836]},"properties":{"CODE":226,"GB":31060,"TN":241061,"RNAME":"昌黎县","MAPTN":"J5004241061","wdd1":"暖温带","wwd2":"","qhq1":0,"qhq2":"","qhq":""}},
{"type":"Feature","geometry":{"type":"Point","coordinates":[118.11028288570566,39.56029892036433]},"properties":{"CODE":225,"GB":31050,"TN":244191,"RNAME":"丰南区","MAPTN":"J5003244191","wdd1":"暖温带","wwd2":"","qhq1":0,"qhq2":"半干旱区","qhq":""}},
{"type":"Feature","geometry":{"type":"Point","coordinates":[117.31216430251865,39.72106933616563]},"properties":{"CODE":226,"GB":31060,"TN":243231,"RNAME":"宝坻区","MAPTN":"J5003243231","wdd1":"暖温带","wwd2":"","qhq1":0,"qhq2":"","qhq":""}},
{"type":"Feature","geometry":{"type":"Point","coordinates":[118.12129973084106,39.824783325903454]},"properties":{"CODE":226,"GB":31060,"TN":241861,"RNAME":"丰润区","MAPTN":"J5003241861","wdd1":"暖温带","wwd2":"","qhq1":0,"qhq2":"","qhq":""}},
{"type":"Feature","geometry":{"type":"Point","coordinates":[117.13610076609561,39.230426788499194]},"properties":{"CODE":226,"GB":31060,"TN":246141,"RNAME":"北辰区","MAPTN":"J5003246141","wdd1":"暖温带","wwd2":"","qhq1":0,"qhq2":"","qhq":"半干旱区"}},
{"type":"Feature","geometry":{"type":"Point","coordinates":[117.3106536827601,39.0897216799051]},"properties":{"CODE":226,"GB":31060,"TN":246751,"RNAME":"东丽区","MAPTN":"J5003246751","wdd1":"暖温带","wwd2":"","qhq1":0,"qhq2":"半干旱区","qhq":""}},
{"type":"Feature","geometry":{"type":"Point","coordinates":[115.85578918425,39.32911300660928]},"properties":{"CODE":225,"GB":31050,"TN":246970,"RNAME":"高碑店市","MAPTN":"J5002246970","wdd1":"","wwd2":"","qhq1":0,"qhq2":"半干旱区","qhq":""}},
{"type":"Feature","geometry":{"type":"Point","coordinates":[116.39649963294022,39.10581207280353]},"properties":{"CODE":225,"GB":31050,"TN":249780,"RNAME":"霸州市","MAPTN":"J5002249780","wdd1":"","wwd2":"","qhq1":0,"qhq2":"","qhq":"半干旱区"}},
{"type":"Feature","geometry":{"type":"Point","coordinates":[116.28239440838732,39.84775161747436]},"properties":{"CODE":226,"GB":31060,"TN":240840,"RNAME":"丰台区","MAPTN":"J5002240840","wdd1":"暖温带","wwd2":"","qhq1":0,"qhq2":"","qhq":""}},
{"type":"Feature","geometry":{"type":"Point","coordinates":[115.97792053178722,39.69823837282608]},"properties":{"CODE":226,"GB":31060,"TN":242250,"RNAME":"房山区","MAPTN":"J5002242250","wdd1":"暖温带","wwd2":"","qhq1":0,"qhq2":"","qhq":""}},
{"type":"Feature","geometry":{"type":"Point","coordinates":[116.33329772864296,39.727085113571874]},"properties":{"CODE":226,"GB":31060,"TN":242521,"RNAME":"大兴区","MAPTN":"J5002242521","wdd1":"暖温带","wwd2":"","qhq1":0,"qhq2":"","qhq":""}},
{"type":"Feature","geometry":{"type":"Point","coordinates":[116.98153686268122,39.88396835341101]},"properties":{"CODE":226,"GB":31060,"TN":241431,"RNAME":"大厂回族自治县","MAPTN":"J5002241431","wdd1":"暖温带","wwd2":"","qhq1":0,"qhq2":"","qhq":""}},
{"type":"Feature","geometry":{"type":"Point","coordinates":[116.30031585617388,39.435249328656084]},"properties":{"CODE":226,"GB":31060,"TN":246141,"RNAME":"固安县","MAPTN":"J5002246141","wdd1":"暖温带","wwd2":"","qhq1":0,"qhq2":"半干旱区","qhq":""}},
{"type":"Feature","geometry":{"type":"Point","coordinates":[115.77975463840068,39.27258682252445]},"properties":{"CODE":226,"GB":31060,"TN":246961,"RNAME":"定兴县","MAPTN":"J5002246961","wdd1":"暖温带","wwd2":"","qhq1":0,"qhq2":"","qhq":""}},
{"type":"Feature","geometry":{"type":"Point","coordinates":[114.27440643309826,39.76078796386432]},"properties":{"CODE":226,"GB":31060,"TN":213681,"RNAME":"广灵县","MAPTN":"J5001213681","wdd1":"","wwd2":"","qhq1":0,"qhq2":"半干旱区","qhq":""}},
{"type":"Feature","geometry":{"type":"Point","coordinates":[111.56237792968749,36.652412414548735]},"properties":{"CODE":226,"GB":31060,"TN":218510,"RNAME":"汾西县","MAPTN":"J4915218510","wdd1":"","wwd2":"","qhq1":0,"qhq2":"半干旱区","qhq":""}},
{"type":"Feature","geometry":{"type":"Point","coordinates":[111.91184234619139,36.26640319824035]},"properties":{"CODE":206,"GB":31060,"TN":217950,"RNAME":"古县","MAPTN":"J4915217950","wdd1":"暖温带","wwd2":"","qhq1":0,"qhq2":"","qhq":""}},
{"type":"Feature","geometry":{"type":"Point","coordinates":[112.24385833740233,36.14685821533025]},"properties":{"CODE":206,"GB":31060,"TN":217961,"RNAME":"安泽县","MAPTN":"J4915217961","wdd1":"暖温带","wwd2":"","qhq1":0,"qhq2":"","qhq":""}},
{"type":"Feature","geometry":{"type":"Point","coordinates":[110.7451629638672,36.46428680419727]},"properties":{"CODE":226,"GB":31060,"TN":220231,"RNAME":"大宁县","MAPTN":"J4914220231","wdd1":"暖温带","wwd2":"","qhq1":0,"qhq2":"","qhq":"半干旱区"}},
{"type":"Feature","geometry":{"type":"Point","coordinates":[109.32303619384761,36.86452484130642]},"properties":{"CODE":226,"GB":31060,"TN":219321,"RNAME":"安塞县","MAPTN":"J4913219321","wdd1":"暖温带","wwd2":"","qhq1":0,"qhq2":"","qhq":"半干旱区"}},
{"type":"Feature","geometry":{"type":"Point","coordinates":[109.34654998779291,36.278964996336036]},"properties":{"CODE":226,"GB":31060,"TN":219441,"RNAME":"甘泉县","MAPTN":"J4913219441","wdd1":"暖温带","wwd2":"","qhq1":0,"qhq2":"","qhq":""}},
{"type":"Feature","geometry":{"type":"Point","coordinates":[109.37947845458979,36.00284576415845]},"properties":{"CODE":226,"GB":31060,"TN":219501,"RNAME":"富县","MAPTN":"J4913219501","wdd1":"暖温带","wwd2":"","qhq1":0,"qhq2":"","qhq":""}},
{"type":"Feature","geometry":{"type":"Point","coordinates":[113.5624618530283,37.32914352416758]},"properties":{"CODE":226,"GB":31060,"TN":231041,"RNAME":"和顺县","MAPTN":"J4912231041","wdd1":"暖温带","wwd2":"","qhq1":0,"qhq2":"","qhq":""}},
{"type":"Feature","geometry":{"type":"Point","coordinates":[111.22715759277344,37.88493728637427]},"properties":{"CODE":226,"GB":31060,"TN":222001,"RNAME":"方山县","MAPTN":"J4911222001","wdd1":"暖温带","wwd2":"","qhq1":0,"qhq2":"半干旱区","qhq":""}},
{"type":"Feature","geometry":{"type":"Point","coordinates":[111.78241729736325,37.26570129394294]},"properties":{"CODE":225,"GB":31050,"TN":222070,"RNAME":"汾阳市","MAPTN":"J4911222070","wdd1":"","wwd2":"","qhq1":0,"qhq2":"半干旱区","qhq":""}},
{"type":"Feature","geometry":{"type":"Point","coordinates":[112.16101074218747,37.9080924987766]},"properties":{"CODE":225,"GB":31050,"TN":223000,"RNAME":"古交市","MAPTN":"J4911223000","wdd1":"暖温带","wwd2":"","qhq1":0,"qhq2":"半干旱区","qhq":""}},
{"type":"Feature","geometry":{"type":"Point","coordinates":[112.9519882202149,38.48679351806342]},"properties":{"CODE":226,"GB":31060,"TN":214061,"RNAME":"定襄县","MAPTN":"J4908214061","wdd1":"暖温带","wwd2":"","qhq1":0,"qhq2":"","qhq":""}},
{"type":"Feature","geometry":{"type":"Point","coordinates":[113.26681518554688,39.188884735104146]},"properties":{"CODE":226,"GB":31060,"TN":211560,"RNAME":"繁峙县","MAPTN":"J4904211560","wdd1":"暖温带","wwd2":"","qhq1":0,"qhq2":"半干旱区","qhq":""}},
{"type":"Feature","geometry":{"type":"Point","coordinates":[112.94354248046876,39.06381988525066]},"properties":{"CODE":226,"GB":31060,"TN":211530,"RNAME":"代县","MAPTN":"J4904211530","wdd1":"暖温带","wwd2":"","qhq1":0,"qhq2":"","qhq":"半干旱区"}},
{"type":"Feature","geometry":{"type":"Point","coordinates":[111.13341522216795,39.3805046081509]},"properties":{"CODE":226,"GB":31060,"TN":213011,"RNAME":"河曲县","MAPTN":"J4903213011","wdd1":"","wwd2":"","qhq1":0,"qhq2":"半干旱区","qhq":""}},
{"type":"Feature","geometry":{"type":"Point","coordinates":[111.07095336914062,39.02925109862958]},"properties":{"CODE":226,"GB":31060,"TN":213031,"RNAME":"府谷县","MAPTN":"J4903213031","wdd1":"","wwd2":"","qhq1":0,"qhq2":"半干旱区","qhq":""}},
{"type":"Feature","geometry":{"type":"Point","coordinates":[111.07634735107423,39.01782608031903]},"properties":{"CODE":226,"GB":31060,"TN":213041,"RNAME":"保德县","MAPTN":"J4903213041","wdd1":"","wwd2":"","qhq1":0,"qhq2":"","qhq":"半干旱区"}},
{"type":"Feature","geometry":{"type":"Point","coordinates":[108.72232818603534,39.83998107909801]},"properties":{"CODE":226,"GB":31060,"TN":201381,"RNAME":"杭锦旗","MAPTN":"J4901201381","wdd1":"","wwd2":"","qhq1":0,"qhq2":"半干旱区","qhq":"干旱区"}},
{"type":"Feature","geometry":{"type":"Point","coordinates":[105.64174652142752,36.56407165530852]},"properties":{"CODE":226,"GB":31060,"TN":206531,"RNAME":"海原县","MAPTN":"J4815206531","wdd1":"","wwd2":"","qhq1":0,"qhq2":"半干旱区","qhq":""}},
{"type":"Feature","geometry":{"type":"Point","coordinates":[103.94369507564637,36.333419800286784]},"properties":{"CODE":226,"GB":31060,"TN":207441,"RNAME":"皋兰县","MAPTN":"J4814207441","wdd1":"","wwd2":"","qhq1":0,"qhq2":"半干旱区","qhq":""}},
{"type":"Feature","geometry":{"type":"Point","coordinates":[107.60073852539102,37.59272766113098]},"properties":{"CODE":226,"GB":31060,"TN":204401,"RNAME":"定边县","MAPTN":"J4812204401","wdd1":"","wwd2":"","qhq1":0,"qhq2":"","qhq":"半干旱区"}},
{"type":"Feature","geometry":{"type":"Point","coordinates":[102.89340213240715,37.46060562337895]},"properties":{"CODE":226,"GB":31060,"TN":204481,"RNAME":"古浪县","MAPTN":"J4809204481","wdd1":"","wwd2":"","qhq1":0,"qhq2":"干旱区","qhq":""}},
{"type":"Feature","geometry":{"type":"Point","coordinates":[107.43527221680365,38.231136322019815]},"properties":{"CODE":206,"GB":31060,"TN":205371,"RNAME":"鄂托克前旗","MAPTN":"J4808205371","wdd1":"","wwd2":"","qhq1":0,"qhq2":"半干旱区","qhq":"干旱区"}},
{"type":"Feature","geometry":{"type":"Point","coordinates":[107.97874450683766,39.09114837646189]},"properties":{"CODE":226,"GB":31060,"TN":206201,"RNAME":"鄂托克旗","MAPTN":"J4804206201","wdd1":"","wwd2":"","qhq1":0,"qhq2":"半干旱区","qhq":"干旱区"}},
{"type":"Feature","geometry":{"type":"Point","coordinates":[106.87688446051523,39.439022064210505]},"properties":{"CODE":207,"GB":31061,"TN":203580,"RNAME":"海南区","MAPTN":"J4804203580","wdd1":"","wwd2":"","qhq1":0,"qhq2":"干旱区","qhq":""}},
{"type":"Feature","geometry":{"type":"Point","coordinates":[101.4279099877824,36.04205704645371]},"properties":{"CODE":226,"GB":31060,"TN":210301,"RNAME":"贵德县","MAPTN":"J4716210301","wdd1":"高寒区","wwd2":"","qhq1":0,"qhq2":"","qhq":""}},
{"type":"Feature","geometry":{"type":"Point","coordinates":[101.6749345043418,36.936817176775094]},"properties":{"CODE":226,"GB":31060,"TN":200321,"RNAME":"大通回族土族自治县","MAPTN":"J4716200321","wdd1":"","wwd2":"","qhq1":0,"qhq2":"","qhq":"半干旱区"}},
{"type":"Feature","geometry":{"type":"Point","coordinates":[98.09124994739933,36.300625028865895]},"properties":{"CODE":226,"GB":31060,"TN":200791,"RNAME":"都兰县","MAPTN":"J4714200791","wdd1":"高寒区","wwd2":"","qhq1":0,"qhq2":"","qhq":""}},
{"type":"Feature","geometry":{"type":"Point","coordinates":[100.13560537253298,37.325668369807154]},"properties":{"CODE":226,"GB":31060,"TN":200791,"RNAME":"刚察县","MAPTN":"J4711200791","wdd1":"高寒区","wwd2":"","qhq1":0,"qhq2":"","qhq":""}},
{"type":"Feature","geometry":{"type":"Point","coordinates":[101.6692353767002,39.208210000317386]},"properties":{"CODE":226,"GB":31060,"TN":200871,"RNAME":"阿拉善右旗","MAPTN":"J4704200871","wdd1":"","wwd2":"","qhq1":0,"qhq2":"极干旱区","qhq":"干旱区"}},
{"type":"Feature","geometry":{"type":"Point","coordinates":[99.81599506336119,39.3751373809002]},"properties":{"CODE":226,"GB":31060,"TN":201431,"RNAME":"高台县","MAPTN":"J4703201431","wdd1":"","wwd2":"","qhq1":0,"qhq2":"干旱区","qhq":""}},
{"type":"Feature","geometry":{"type":"Point","coordinates":[94.89635129688155,36.403821751107785]},"properties":{"CODE":225,"GB":31050,"TN":200190,"RNAME":"格尔木市","MAPTN":"J4616200190","wdd1":"高寒区","wwd2":"","qhq1":0,"qhq2":"","qhq":""}},
{"type":"Feature","geometry":{"type":"Point","coordinates":[94.30640782267184,39.625971766754944]},"properties":{"CODE":206,"GB":31060,"TN":200271,"RNAME":"阿克塞哈萨克族自治县","MAPTN":"J4603200271","wdd1":"高寒区","wwd2":"","qhq1":0,"qhq2":"","qhq":""}},
{"type":"Feature","geometry":{"type":"Point","coordinates":[80.81045002297292,37.00399329184383]},"properties":{"CODE":226,"GB":31060,"TN":204151,"RNAME":"策勒县","MAPTN":"J4410204151","wdd1":"高寒区","wwd2":"","qhq1":0,"qhq2":"","qhq":"极干旱区"}},
{"type":"Feature","geometry":{"type":"Point","coordinates":[78.58325861708843,39.79113026159289]},"properties":{"CODE":226,"GB":31060,"TN":201241,"RNAME":"巴楚县","MAPTN":"J4401201241","wdd1":"","wwd2":"","qhq1":0,"qhq2":"","qhq":"干旱区"}},
{"type":"Feature","geometry":{"type":"Point","coordinates":[76.78391753190363,39.49962451448069]},"properties":{"CODE":206,"GB":31060,"TN":201621,"RNAME":"伽师县","MAPTN":"J4304201621","wdd1":"","wwd2":"","qhq1":0,"qhq2":"干旱区","qhq":""}},
{"type":"Feature","geometry":{"type":"Point","coordinates":[75.99633276619467,39.155562635899926]},"properties":{"CODE":206,"GB":31060,"TN":205801,"RNAME":"阿克陶县","MAPTN":"J4303205801","wdd1":"","wwd2":"","qhq1":0,"qhq2":"","qhq":"干旱区"}},
{"type":"Feature","geometry":{"type":"Point","coordinates":[120.30655663041692,32.853199009836395]},"properties":{"CODE":225,"GB":31050,"TN":201561,"RNAME":"东台市","MAPTN":"I5113201561","wdd1":"亚热带","wwd2":"","qhq1":0,"qhq2":"","qhq":""}},
{"type":"Feature","geometry":{"type":"Point","coordinates":[120.45188895802077,32.542949681778374]},"properties":{"CODE":226,"GB":31060,"TN":207771,"RNAME":"海安县","MAPTN":"I5113207771","wdd1":"亚热带","wwd2":"","qhq1":0,"qhq2":"","qhq":""}},
{"type":"Feature","geometry":{"type":"Point","coordinates":[120.46006003187208,33.20189285865873]},"properties":{"CODE":226,"GB":31050,"TN":207251,"RNAME":"大丰市","MAPTN":"I5109207251","wdd1":"亚热带","wwd2":"","qhq1":0,"qhq2":"","qhq":""}},
{"type":"Feature","geometry":{"type":"Point","coordinates":[119.43169400512014,32.78725052046735]},"properties":{"CODE":225,"GB":31050,"TN":200361,"RNAME":"高邮市","MAPTN":"I5016200361","wdd1":"亚热带","wwd2":"","qhq1":0,"qhq2":"","qhq":""}},
{"type":"Feature","geometry":{"type":"Point","coordinates":[119.44367978576277,32.214023591594774]},"properties":{"CODE":206,"GB":31060,"TN":203320,"RNAME":"丹徒县","MAPTN":"I5016203320","wdd1":"亚热带","wwd2":"","qhq1":0,"qhq2":"","qhq":""}},
{"type":"Feature","geometry":{"type":"Point","coordinates":[119.41889188296703,32.4021224990791]},"properties":{"CODE":206,"GB":31060,"TN":201790,"RNAME":"邗江区","MAPTN":"I5016201790","wdd1":"亚热带","wwd2":"","qhq1":0,"qhq2":"","qhq":""}},
{"type":"Feature","geometry":{"type":"Point","coordinates":[117.67467498609504,32.526245117318574]},"properties":{"CODE":226,"GB":31060,"TN":210841,"RNAME":"定远县","MAPTN":"I5015210841","wdd1":"亚热带","wwd2":"","qhq1":0,"qhq2":"","qhq":""}},
{"type":"Feature","geometry":{"type":"Point","coordinates":[117.55825042573886,32.86800384533596]},"properties":{"CODE":226,"GB":31060,"TN":203921,"RNAME":"凤阳县","MAPTN":"I5015203921","wdd1":"亚热带","wwd2":"","qhq1":0,"qhq2":"","qhq":""}},
{"type":"Feature","geometry":{"type":"Point","coordinates":[115.67837524422211,32.18314361572433]},"properties":{"CODE":226,"GB":31060,"TN":218811,"RNAME":"固始县","MAPTN":"I5014218811","wdd1":"亚热带","wwd2":"","qhq1":0,"qhq2":"","qhq":""}},
{"type":"Feature","geometry":{"type":"Point","coordinates":[115.58302307135502,32.63743209839064]},"properties":{"CODE":226,"GB":31060,"TN":208161,"RNAME":"阜南县","MAPTN":"I5014208161","wdd1":"暖温带","wwd2":"","qhq1":0,"qhq2":"","qhq":""}},
{"type":"Feature","geometry":{"type":"Point","coordinates":[116.7230834959447,32.704483032252675]},"properties":{"CODE":226,"GB":31060,"TN":209811,"RNAME":"凤台县","MAPTN":"I5014209811","wdd1":"暖温带","wwd2":"","qhq1":0,"qhq2":"","qhq":""}},
{"type":"Feature","geometry":{"type":"Point","coordinates":[116.84232330300237,32.628684997590305]},"properties":{"CODE":226,"GB":31060,"TN":210051,"RNAME":"八公山区","MAPTN":"I5014210051","wdd1":"暖温带","wwd2":"","qhq1":0,"qhq2":"","qhq":""}},
{"type":"Feature","geometry":{"type":"Point","coordinates":[114.89857482914222,32.01226425170927]},"properties":{"CODE":226,"GB":31060,"TN":224451,"RNAME":"光山县","MAPTN":"I5013224451","wdd1":"亚热带","wwd2":"","qhq1":0,"qhq2":"","qhq":""}},
{"type":"Feature","geometry":{"type":"Point","coordinates":[119.79270167574435,33.784282687353425]},"properties":{"CODE":226,"GB":31060,"TN":200641,"RNAME":"阜宁县","MAPTN":"I5012200641","wdd1":"亚热带","wwd2":"","qhq1":0,"qhq2":"","qhq":""}},
{"type":"Feature","geometry":{"type":"Point","coordinates":[119.30948636556775,33.23534011996546]},"properties":{"CODE":226,"GB":31060,"TN":201881,"RNAME":"宝应县","MAPTN":"I5012201881","wdd1":"亚热带","wwd2":"","qhq1":0,"qhq2":"","qhq":""}},
{"type":"Feature","geometry":{"type":"Point","coordinates":[117.30887603653896,33.3177680970159]},"properties":{"CODE":226,"GB":31060,"TN":218701,"RNAME":"固镇县","MAPTN":"I5011218701","wdd1":"暖温带","wwd2":"","qhq1":0,"qhq2":"","qhq":""}},
{"type":"Feature","geometry":{"type":"Point","coordinates":[115.77376556398464,33.8791770935117]},"properties":{"CODE":225,"GB":31050,"TN":201350,"RNAME":"亳州市","MAPTN":"I5010201350","wdd1":"暖温带","wwd2":"","qhq1":0,"qhq2":"","qhq":""}},
{"type":"Feature","geometry":{"type":"Point","coordinates":[116.8667907709651,33.99344253545284]},"properties":{"CODE":207,"GB":31061,"TN":200840,"RNAME":"杜集区","MAPTN":"I5010200840","wdd1":"暖温带","wwd2":"","qhq1":0,"qhq2":"","qhq":""}},
{"type":"Feature","geometry":{"type":"Point","coordinates":[115.19276428226252,33.642677307129986]},"properties":{"CODE":226,"GB":31060,"TN":208841,"RNAME":"郸城县","MAPTN":"I5009208841","wdd1":"暖温带","wwd2":"","qhq1":0,"qhq2":"","qhq":""}},
{"type":"Feature","geometry":{"type":"Point","coordinates":[119.12072751537855,34.8392105118315]},"properties":{"CODE":226,"GB":31060,"TN":202791,"RNAME":"赣榆县","MAPTN":"I5008202791","wdd1":"暖温带","wwd2":"","qhq1":0,"qhq2":"","qhq":""}},
{"type":"Feature","geometry":{"type":"Point","coordinates":[118.76181028844829,34.52297210789673]},"properties":{"CODE":226,"GB":31060,"TN":205911,"RNAME":"东海县","MAPTN":"I5008205911","wdd1":"暖温带","wwd2":"","qhq1":0,"qhq2":"","qhq":""}},
{"type":"Feature","geometry":{"type":"Point","coordinates":[119.25251004501995,34.303020479015714]},"properties":{"CODE":226,"GB":31060,"TN":210221,"RNAME":"灌云县","MAPTN":"I5008210221","wdd1":"暖温带","wwd2":"","qhq1":0,"qhq2":"","qhq":""}},
{"type":"Feature","geometry":{"type":"Point","coordinates":[119.34118649556775,34.093486787747246]},"properties":{"CODE":226,"GB":31060,"TN":216681,"RNAME":"灌南县","MAPTN":"I5008216681","wdd1":"暖温带","wwd2":"","qhq1":0,"qhq2":"","qhq":""}},
{"type":"Feature","geometry":{"type":"Point","coordinates":[119.83631892053732,34.005634311144576]},"properties":{"CODE":226,"GB":31060,"TN":218611,"RNAME":"滨海县","MAPTN":"I5008218611","wdd1":"暖温带","wwd2":"","qhq1":0,"qhq2":"","qhq":""}},
{"type":"Feature","geometry":{"type":"Point","coordinates":[115.88614654536075,34.953350067148875]},"properties":{"CODE":226,"GB":31060,"TN":204501,"RNAME":"成武县","MAPTN":"I5006204501","wdd1":"暖温带","wwd2":"","qhq1":0,"qhq2":"","qhq":""}},
{"type":"Feature","geometry":{"type":"Point","coordinates":[115.53873443603831,34.82902526855901]},"properties":{"CODE":226,"GB":31060,"TN":206901,"RNAME":"曹县","MAPTN":"I5006206901","wdd1":"暖温带","wwd2":"","qhq1":0,"qhq2":"","qhq":""}},
{"type":"Feature","geometry":{"type":"Point","coordinates":[116.083038329987,34.794692993178934]},"properties":{"CODE":226,"GB":31060,"TN":207651,"RNAME":"单县","MAPTN":"I5006207651","wdd1":"暖温带","wwd2":"","qhq1":0,"qhq2":"","qhq":""}},
{"type":"Feature","geometry":{"type":"Point","coordinates":[116.59255981408582,34.696582794227794]},"properties":{"CODE":226,"GB":31060,"TN":201481,"RNAME":"丰县","MAPTN":"I5006201481","wdd1":"暖温带","wwd2":"","qhq1":0,"qhq2":"","qhq":""}},
{"type":"Feature","geometry":{"type":"Point","coordinates":[116.33336639388538,34.42462921144802]},"properties":{"CODE":226,"GB":31060,"TN":215361,"RNAME":"砀山县","MAPTN":"I5006215361","wdd1":"暖温带","wwd2":"","qhq1":0,"qhq2":"","qhq":""}},
{"type":"Feature","geometry":{"type":"Point","coordinates":[114.3876037597787,34.05659484863239]},"properties":{"CODE":226,"GB":31060,"TN":218421,"RNAME":"扶沟县","MAPTN":"I5005218421","wdd1":"暖温带","wwd2":"","qhq1":0,"qhq2":"","qhq":""}},
{"type":"Feature","geometry":{"type":"Point","coordinates":[117.9671478218231,35.26698303259713]},"properties":{"CODE":226,"GB":31060,"TN":219781,"RNAME":"费县","MAPTN":"I5003219781","wdd1":"暖温带","wwd2":"","qhq1":0,"qhq2":"","qhq":""}},
{"type":"Feature","geometry":{"type":"Point","coordinates":[118.37654875782421,35.065807343159285]},"properties":{"CODE":226,"GB":31060,"TN":220201,"RNAME":"河东区（临沂）","MAPTN":"I5003220201","wdd1":"暖温带","wwd2":"","qhq1":0,"qhq2":"","qhq":""}},
{"type":"Feature","geometry":{"type":"Point","coordinates":[116.46086883501206,35.93013000492116]},"properties":{"CODE":226,"GB":31060,"TN":217220,"RNAME":"东平县","MAPTN":"I5002217220","wdd1":"暖温带","wwd2":"","qhq1":0,"qhq2":"","qhq":""}},
{"type":"Feature","geometry":{"type":"Point","coordinates":[115.56439971923128,35.07347488403811]},"properties":{"CODE":226,"GB":31060,"TN":218720,"RNAME":"定陶区","MAPTN":"I5002218720","wdd1":"暖温带","wwd2":"","qhq1":0,"qhq2":"","qhq":""}},
{"type":"Feature","geometry":{"type":"Point","coordinates":[115.48921203610651,35.903930664067225]},"properties":{"CODE":226,"GB":31060,"TN":222531,"RNAME":"范县","MAPTN":"I5001222531","wdd1":"暖温带","wwd2":"","qhq1":0,"qhq2":"","qhq":""}},
{"type":"Feature","geometry":{"type":"Point","coordinates":[115.08861541749143,35.29257965087988]},"properties":{"CODE":226,"GB":31060,"TN":222591,"RNAME":"东明县","MAPTN":"I5001222591","wdd1":"暖温带","wwd2":"","qhq1":0,"qhq2":"","qhq":""}},
{"type":"Feature","geometry":{"type":"Point","coordinates":[114.41442108155309,35.04193115234296]},"properties":{"CODE":226,"GB":31060,"TN":222621,"RNAME":"封丘县","MAPTN":"I5001222621","wdd1":"暖温带","wwd2":"","qhq1":0,"qhq2":"","qhq":""}},
{"type":"Feature","geometry":{"type":"Point","coordinates":[112.08022308349611,32.68327713012707]},"properties":{"CODE":225,"GB":31050,"TN":208420,"RNAME":"邓州市","MAPTN":"I4915208420","wdd1":"亚热带","wwd2":"","qhq1":0,"qhq2":"","qhq":""}},
{"type":"Feature","geometry":{"type":"Point","coordinates":[111.50789642333984,32.543106079101754]},"properties":{"CODE":225,"GB":31050,"TN":209530,"RNAME":"丹江口市","MAPTN":"I4915209530","wdd1":"亚热带","wwd2":"","qhq1":0,"qhq2":"","qhq":""}},
{"type":"Feature","geometry":{"type":"Point","coordinates":[111.6465072631836,32.26422500610385]},"properties":{"CODE":226,"GB":31060,"TN":215471,"RNAME":"谷城县","MAPTN":"I4915215471","wdd1":"亚热带","wwd2":"","qhq1":0,"qhq2":"","qhq":""}},
{"type":"Feature","geometry":{"type":"Point","coordinates":[110.10816192626953,32.8096084594727]},"properties":{"CODE":226,"GB":31060,"TN":204181,"RNAME":"白河县","MAPTN":"I4914204181","wdd1":"亚热带","wwd2":"","qhq1":0,"qhq2":"","qhq":""}},
{"type":"Feature","geometry":{"type":"Point","coordinates":[110.73725891113281,32.06119155883833]},"properties":{"CODE":226,"GB":31060,"TN":223131,"RNAME":"房县","MAPTN":"I4914223131","wdd1":"亚热带","wwd2":"","qhq1":0,"qhq2":"","qhq":""}},
{"type":"Feature","geometry":{"type":"Point","coordinates":[108.50604248046623,32.89405059814452]},"properties":{"CODE":226,"GB":31060,"TN":201831,"RNAME":"汉阴县","MAPTN":"I4913201831","wdd1":"亚热带","wwd2":"","qhq1":0,"qhq2":"","qhq":""}},
{"type":"Feature","geometry":{"type":"Point","coordinates":[113.0609283447272,33.87314224243111]},"properties":{"CODE":226,"GB":31060,"TN":201991,"RNAME":"宝丰县","MAPTN":"I4912201991","wdd1":"暖温带","wwd2":"","qhq1":0,"qhq2":"","qhq":""}},
{"type":"Feature","geometry":{"type":"Point","coordinates":[112.99272155761774,33.25835418701152]},"properties":{"CODE":226,"GB":31060,"TN":214861,"RNAME":"方城县","MAPTN":"I4912214861","wdd1":"亚热带","wwd2":"","qhq1":0,"qhq2":"","qhq":""}},
{"type":"Feature","geometry":{"type":"Point","coordinates":[110.3299789428711,33.695716857909744]},"properties":{"CODE":226,"GB":31060,"TN":206861,"RNAME":"丹凤县","MAPTN":"I4910206861","wdd1":"亚热带","wwd2":"","qhq1":0,"qhq2":"","qhq":""}},
{"type":"Feature","geometry":{"type":"Point","coordinates":[113.03060150146537,34.45891189575109]},"properties":{"CODE":225,"GB":31050,"TN":210770,"RNAME":"登封市","MAPTN":"I4908210770","wdd1":"暖温带","wwd2":"","qhq1":0,"qhq2":"","qhq":""}},
{"type":"Feature","geometry":{"type":"Point","coordinates":[109.94280242919923,34.79742431640521]},"properties":{"CODE":226,"GB":31060,"TN":203031,"RNAME":"大荔县","MAPTN":"I4906203031","wdd1":"暖温带","wwd2":"","qhq1":0,"qhq2":"","qhq":"半干旱区"}},
{"type":"Feature","geometry":{"type":"Point","coordinates":[109.08533477783169,34.538013458251065]},"properties":{"CODE":226,"GB":31060,"TN":211951,"RNAME":"高陵区","MAPTN":"I4905211951","wdd1":"暖温带","wwd2":"","qhq1":0,"qhq2":"","qhq":""}},
{"type":"Feature","geometry":{"type":"Point","coordinates":[108.58444213867033,34.78854751586811]},"properties":{"CODE":226,"GB":31060,"TN":204381,"RNAME":"淳化县","MAPTN":"I4905204381","wdd1":"暖温带","wwd2":"","qhq1":0,"qhq2":"","qhq":""}},
{"type":"Feature","geometry":{"type":"Point","coordinates":[109.1733016967771,34.748722076415]},"properties":{"CODE":226,"GB":31060,"TN":207391,"RNAME":"富平县","MAPTN":"I4905207391","wdd1":"暖温带","wwd2":"","qhq1":0,"qhq2":"半干旱区","qhq":""}},
{"type":"Feature","geometry":{"type":"Point","coordinates":[109.06900024414024,34.312980651854694]},"properties":{"CODE":206,"GB":31060,"TN":216561,"RNAME":"灞桥区","MAPTN":"I4905216561","wdd1":"暖温带","wwd2":"","qhq1":0,"qhq2":"","qhq":""}},
{"type":"Feature","geometry":{"type":"Point","coordinates":[112.91759490966824,35.79418945312341]},"properties":{"CODE":225,"GB":31050,"TN":229000,"RNAME":"高平市","MAPTN":"I4904229000","wdd1":"暖温带","wwd2":"","qhq1":0,"qhq2":"","qhq":""}},
{"type":"Feature","geometry":{"type":"Point","coordinates":[113.06241607666067,35.16834640502806]},"properties":{"CODE":226,"GB":31060,"TN":229051,"RNAME":"博爱县","MAPTN":"I4904229051","wdd1":"暖温带","wwd2":"","qhq1":0,"qhq2":"","qhq":""}},
{"type":"Feature","geometry":{"type":"Point","coordinates":[111.84136962890624,35.96722030639481]},"properties":{"CODE":226,"GB":31060,"TN":217001,"RNAME":"浮山县","MAPTN":"I4903217001","wdd1":"暖温带","wwd2":"","qhq1":0,"qhq2":"","qhq":""}},
{"type":"Feature","geometry":{"type":"Point","coordinates":[110.43247222900392,35.462261199949765]},"properties":{"CODE":225,"GB":31050,"TN":210590,"RNAME":"韩城市","MAPTN":"I4902210590","wdd1":"","wwd2":"","qhq1":0,"qhq2":"","qhq":""}},
{"type":"Feature","geometry":{"type":"Point","coordinates":[110.70784759521486,35.58466339111181]},"properties":{"CODE":225,"GB":31050,"TN":209071,"RNAME":"河津市","MAPTN":"I4902209071","wdd1":"暖温带","wwd2":"","qhq1":0,"qhq2":"半干旱区","qhq":""}},
{"type":"Feature","geometry":{"type":"Point","coordinates":[110.14100646972658,35.240806579588565]},"properties":{"CODE":226,"GB":31060,"TN":214221,"RNAME":"合阳县","MAPTN":"I4902214221","wdd1":"暖温带","wwd2":"","qhq1":0,"qhq2":"半干旱区","qhq":""}},
{"type":"Feature","geometry":{"type":"Point","coordinates":[109.58782196044919,35.17745971679562]},"properties":{"CODE":226,"GB":31060,"TN":215381,"RNAME":"白水县","MAPTN":"I4902215381","wdd1":"暖温带","wwd2":"","qhq1":0,"qhq2":"","qhq":"半干旱区"}},
{"type":"Feature","geometry":{"type":"Point","coordinates":[109.92761993408205,35.185901641844445]},"properties":{"CODE":226,"GB":31060,"TN":215871,"RNAME":"澄城县","MAPTN":"I4902215871","wdd1":"暖温带","wwd2":"","qhq1":0,"qhq2":"","qhq":"半干旱区"}},
{"type":"Feature","geometry":{"type":"Point","coordinates":[108.01319122314045,35.81919097900245]},"properties":{"CODE":226,"GB":31060,"TN":203041,"RNAME":"合水县","MAPTN":"I4901203041","wdd1":"暖温带","wwd2":"","qhq1":0,"qhq2":"","qhq":""}},
{"type":"Feature","geometry":{"type":"Point","coordinates":[108.07912445067899,35.03664398193251]},"properties":{"CODE":226,"GB":31060,"TN":217621,"RNAME":"彬县","MAPTN":"I4901217621","wdd1":"暖温带","wwd2":"","qhq1":0,"qhq2":"","qhq":""}},
{"type":"Feature","geometry":{"type":"Point","coordinates":[107.98712921141825,33.52398681640593]},"properties":{"CODE":226,"GB":31060,"TN":206991,"RNAME":"佛坪县","MAPTN":"I4812206991","wdd1":"亚热带","wwd2":"","qhq1":0,"qhq2":"","qhq":""}},
{"type":"Feature","geometry":{"type":"Point","coordinates":[107.32660675046405,33.15409088134772]},"properties":{"CODE":226,"GB":31060,"TN":215861,"RNAME":"城固县","MAPTN":"I4812215861","wdd1":"亚热带","wwd2":"","qhq1":0,"qhq2":"","qhq":""}},
{"type":"Feature","geometry":{"type":"Point","coordinates":[107.38942718504319,34.52373886108362]},"properties":{"CODE":226,"GB":31060,"TN":211191,"RNAME":"凤翔县","MAPTN":"I4808211191","wdd1":"暖温带","wwd2":"","qhq1":0,"qhq2":"","qhq":""}},
{"type":"Feature","geometry":{"type":"Point","coordinates":[107.87132263182798,34.36166763305595]},"properties":{"CODE":226,"GB":31060,"TN":216551,"RNAME":"扶风县","MAPTN":"I4808216551","wdd1":"暖温带","wwd2":"","qhq1":0,"qhq2":"","qhq":""}},
{"type":"Feature","geometry":{"type":"Point","coordinates":[105.32732391402536,34.73995590214423]},"properties":{"CODE":226,"GB":31060,"TN":204851,"RNAME":"甘谷县","MAPTN":"I4807204851","wdd1":"暖温带","wwd2":"","qhq1":0,"qhq2":"","qhq":""}},
{"type":"Feature","geometry":{"type":"Point","coordinates":[104.39274597398187,34.04533004778402]},"properties":{"CODE":226,"GB":31060,"TN":216571,"RNAME":"宕昌县","MAPTN":"I4806216571","wdd1":"亚热带","wwd2":"","qhq1":0,"qhq2":"","qhq":""}},
{"type":"Feature","geometry":{"type":"Point","coordinates":[107.02641296385514,35.302925109863715]},"properties":{"CODE":226,"GB":31060,"TN":214351,"RNAME":"崇信县","MAPTN":"I4804214351","wdd1":"暖温带","wwd2":"","qhq1":0,"qhq2":"","qhq":""}},
{"type":"Feature","geometry":{"type":"Point","coordinates":[103.57433320152612,35.480903626199755]},"properties":{"CODE":226,"GB":31060,"TN":211421,"RNAME":"广河县","MAPTN":"I4802211421","wdd1":"暖温带","wwd2":"","qhq1":0,"qhq2":"","qhq":""}},
{"type":"Feature","geometry":{"type":"Point","coordinates":[103.38789369075272,35.663612366649986]},"properties":{"CODE":226,"GB":31060,"TN":206781,"RNAME":"东乡族自治县","MAPTN":"I4801206781","wdd1":"","wwd2":"","qhq1":0,"qhq2":"半干旱区","qhq":""}},
{"type":"Feature","geometry":{"type":"Point","coordinates":[103.34575654502645,35.42386245822537]},"properties":{"CODE":226,"GB":31060,"TN":209511,"RNAME":"和政县","MAPTN":"I4801209511","wdd1":"暖温带","wwd2":"","qhq1":0,"qhq2":"","qhq":""}},
{"type":"Feature","geometry":{"type":"Point","coordinates":[101.7017136330889,32.90464401715528]},"properties":{"CODE":226,"GB":31060,"TN":203641,"RNAME":"阿坝县","MAPTN":"I4716203641","wdd1":"高寒区","wwd2":"","qhq1":0,"qhq2":"","qhq":""}},
{"type":"Feature","geometry":{"type":"Point","coordinates":[100.73696155569316,32.93435288786052]},"properties":{"CODE":226,"GB":31060,"TN":204211,"RNAME":"班玛县","MAPTN":"I4716204211","wdd1":"亚热带","wwd2":"高寒区","qhq1":0,"qhq2":"","qhq":""}},
{"type":"Feature","geometry":{"type":"Point","coordinates":[99.89941452100621,33.96980288939582]},"properties":{"CODE":206,"GB":31060,"TN":200061,"RNAME":"甘德县","MAPTN":"I4711200061","wdd1":"高寒区","wwd2":"","qhq1":0,"qhq2":"","qhq":""}},
{"type":"Feature","geometry":{"type":"Point","coordinates":[99.64932306611716,33.75088123550592]},"properties":{"CODE":226,"GB":31060,"TN":200411,"RNAME":"达日县","MAPTN":"I4711200411","wdd1":"高寒区","wwd2":"","qhq1":0,"qhq2":"","qhq":""}},
{"type":"Feature","geometry":{"type":"Point","coordinates":[97.10784524240783,33.3686297653947]},"properties":{"CODE":226,"GB":31060,"TN":202581,"RNAME":"称多县","MAPTN":"I4709202581","wdd1":"亚热带","wwd2":"高寒区","qhq1":0,"qhq2":"","qhq":""}},
{"type":"Feature","geometry":{"type":"Point","coordinates":[101.61314401869943,34.73532868090689]},"properties":{"CODE":226,"GB":31060,"TN":200291,"RNAME":"河南蒙古族自治县","MAPTN":"I4708200291","wdd1":"高寒区","wwd2":"","qhq1":0,"qhq2":"","qhq":""}},
{"type":"Feature","geometry":{"type":"Point","coordinates":[100.74737573980153,35.58594133195148]},"properties":{"CODE":226,"GB":31060,"TN":201761,"RNAME":"贵南县","MAPTN":"I4704201761","wdd1":"高寒区","wwd2":"","qhq1":0,"qhq2":"","qhq":""}},
{"type":"Feature","geometry":{"type":"Point","coordinates":[91.6780152248777,32.26194131742435]},"properties":{"CODE":226,"GB":31060,"TN":200301,"RNAME":"安多县","MAPTN":"I4614200301","wdd1":"高寒区","wwd2":"","qhq1":0,"qhq2":"","qhq":""}},
{"type":"Feature","geometry":{"type":"Point","coordinates":[84.06446477256077,32.30494627936104]},"properties":{"CODE":226,"GB":31060,"TN":200601,"RNAME":"改则县","MAPTN":"I4513200601","wdd1":"高寒区","wwd2":"","qhq1":0,"qhq2":"","qhq":""}},
{"type":"Feature","geometry":{"type":"Point","coordinates":[81.1224400459586,32.393292025160335]},"properties":{"CODE":206,"GB":31060,"TN":201241,"RNAME":"革吉县","MAPTN":"I4415201241","wdd1":"高寒区","wwd2":"","qhq1":0,"qhq2":"","qhq":""}},
{"type":"Feature","geometry":{"type":"Point","coordinates":[80.10344298419396,32.506877751426174]},"properties":{"CODE":226,"GB":31060,"TN":200921,"RNAME":"噶尔县","MAPTN":"I4414200921","wdd1":"高寒区","wwd2":"","qhq1":0,"qhq2":"","qhq":""}},
{"type":"Feature","geometry":{"type":"Point","coordinates":[121.8469235914619,29.92502404690838]},"properties":{"CODE":206,"GB":31060,"TN":200880,"RNAME":"北仑区","MAPTN":"H5110200880","wdd1":"亚热带","wwd2":"","qhq1":0,"qhq2":"","qhq":""}},
{"type":"Feature","geometry":{"type":"Point","coordinates":[121.40494522358927,29.6585083091524]},"properties":{"CODE":225,"GB":31050,"TN":220491,"RNAME":"奉化区","MAPTN":"H5109220491","wdd1":"亚热带","wwd2":"","qhq1":0,"qhq2":"","qhq":""}},
{"type":"Feature","geometry":{"type":"Point","coordinates":[120.22708888843503,29.265684129509342]},"properties":{"CODE":225,"GB":31050,"TN":245411,"RNAME":"东阳市","MAPTN":"H5109245411","wdd1":"亚热带","wwd2":"","qhq1":0,"qhq2":"","qhq":""}},
{"type":"Feature","geometry":{"type":"Point","coordinates":[122.20206417485053,30.244146368878354]},"properties":{"CODE":226,"GB":31060,"TN":204991,"RNAME":"岱山县","MAPTN":"H5106204991","wdd1":"亚热带","wwd2":"","qhq1":0,"qhq2":"","qhq":""}},
{"type":"Feature","geometry":{"type":"Point","coordinates":[120.0831298424842,30.548955919578123]},"properties":{"CODE":226,"GB":31060,"TN":231451,"RNAME":"德清县","MAPTN":"H5105231451","wdd1":"亚热带","wwd2":"","qhq1":0,"qhq2":"","qhq":""}},
{"type":"Feature","geometry":{"type":"Point","coordinates":[120.68730918566754,30.528587345904445]},"properties":{"CODE":225,"GB":31050,"TN":233511,"RNAME":"海宁市","MAPTN":"H5105233511","wdd1":"亚热带","wwd2":"","qhq1":0,"qhq2":"","qhq":""}},
{"type":"Feature","geometry":{"type":"Point","coordinates":[120.93634785811128,30.518957144160137]},"properties":{"CODE":226,"GB":31060,"TN":234271,"RNAME":"海盐县","MAPTN":"H5105234271","wdd1":"亚热带","wwd2":"","qhq1":0,"qhq2":"","qhq":""}},
{"type":"Feature","geometry":{"type":"Point","coordinates":[121.23900590749525,30.172582634233112]},"properties":{"CODE":225,"GB":31050,"TN":249251,"RNAME":"慈溪市","MAPTN":"H5105249251","wdd1":"亚热带","wwd2":"","qhq1":0,"qhq2":"","qhq":""}},
{"type":"Feature","geometry":{"type":"Point","coordinates":[121.45252972525827,30.920913707878036]},"properties":{"CODE":226,"GB":31060,"TN":204121,"RNAME":"奉贤区","MAPTN":"H5105204121","wdd1":"亚热带","wwd2":"","qhq1":0,"qhq2":"","qhq":""}},
{"type":"Feature","geometry":{"type":"Point","coordinates":[121.16587814185348,31.89475823467573]},"properties":{"CODE":225,"GB":31050,"TN":203481,"RNAME":"海门市","MAPTN":"H5101203481","wdd1":"亚热带","wwd2":"","qhq1":0,"qhq2":"","qhq":""}},
{"type":"Feature","geometry":{"type":"Point","coordinates":[120.73956289142525,31.643152243119065]},"properties":{"CODE":225,"GB":31050,"TN":210881,"RNAME":"常熟市","MAPTN":"H5101210881","wdd1":"亚热带","wwd2":"","qhq1":0,"qhq2":"","qhq":""}},
{"type":"Feature","geometry":{"type":"Point","coordinates":[121.39459972785149,31.62801934523939]},"properties":{"CODE":226,"GB":31060,"TN":217081,"RNAME":"崇明区","MAPTN":"H5101217081","wdd1":"亚热带","wwd2":"","qhq1":0,"qhq2":"","qhq":""}},
{"type":"Feature","geometry":{"type":"Point","coordinates":[121.48200969047728,31.37322236402222]},"properties":{"CODE":226,"GB":31060,"TN":219820,"RNAME":"宝山区（上海）","MAPTN":"H5101219820","wdd1":"亚热带","wwd2":"","qhq1":0,"qhq2":"","qhq":""}},
{"type":"Feature","geometry":{"type":"Point","coordinates":[118.50888061237357,28.904582977303875]},"properties":{"CODE":226,"GB":31060,"TN":206771,"RNAME":"常山县","MAPTN":"H5016206771","wdd1":"亚热带","wwd2":"","qhq1":0,"qhq2":"","qhq":""}},
{"type":"Feature","geometry":{"type":"Point","coordinates":[117.57356262199585,28.949829101527566]},"properties":{"CODE":226,"GB":31050,"TN":200991,"RNAME":"德兴市","MAPTN":"H5015200991","wdd1":"亚热带","wwd2":"","qhq1":0,"qhq2":"","qhq":""}},
{"type":"Feature","geometry":{"type":"Point","coordinates":[118.18511962777364,28.438116073543082]},"properties":{"CODE":226,"GB":31060,"TN":216401,"RNAME":"广丰区","MAPTN":"H5015216401","wdd1":"亚热带","wwd2":"","qhq1":0,"qhq2":"","qhq":""}},
{"type":"Feature","geometry":{"type":"Point","coordinates":[117.21068573027314,28.28806304926843]},"properties":{"CODE":226,"GB":31060,"TN":217391,"RNAME":"贵溪市","MAPTN":"H5015217391","wdd1":"亚热带","wwd2":"","qhq1":0,"qhq2":"","qhq":""}},
{"type":"Feature","geometry":{"type":"Point","coordinates":[115.54547882093092,28.84379005431736]},"properties":{"CODE":226,"GB":31060,"TN":201871,"RNAME":"安义县","MAPTN":"H5014201871","wdd1":"亚热带","wwd2":"","qhq1":0,"qhq2":"","qhq":""}},
{"type":"Feature","geometry":{"type":"Point","coordinates":[116.61757659944561,28.235914230319803]},"properties":{"CODE":226,"GB":31060,"TN":220111,"RNAME":"东乡区","MAPTN":"H5014220111","wdd1":"亚热带","wwd2":"","qhq1":0,"qhq2":"","qhq":""}},
{"type":"Feature","geometry":{"type":"Point","coordinates":[115.78406524675796,28.193691253654023]},"properties":{"CODE":225,"GB":31050,"TN":218820,"RNAME":"丰城市","MAPTN":"H5014218820","wdd1":"亚热带","wwd2":"","qhq1":0,"qhq2":"","qhq":""}},
{"type":"Feature","geometry":{"type":"Point","coordinates":[115.38115692149488,28.703189849850716]},"properties":{"CODE":226,"GB":31060,"TN":209031,"RNAME":"奉新县","MAPTN":"H5013209031","wdd1":"亚热带","wwd2":"","qhq1":0,"qhq2":"","qhq":""}},
{"type":"Feature","geometry":{"type":"Point","coordinates":[115.3730316163197,28.414941787716664]},"properties":{"CODE":225,"GB":31050,"TN":216261,"RNAME":"高安市","MAPTN":"H5013216261","wdd1":"亚热带","wwd2":"","qhq1":0,"qhq2":"","qhq":""}},
{"type":"Feature","geometry":{"type":"Point","coordinates":[119.03332518686035,29.60523796111862]},"properties":{"CODE":226,"GB":31060,"TN":219991,"RNAME":"淳安县","MAPTN":"H5012219991","wdd1":"亚热带","wwd2":"","qhq1":0,"qhq2":"","qhq":""}},
{"type":"Feature","geometry":{"type":"Point","coordinates":[115.75804901138615,29.33130645751478]},"properties":{"CODE":226,"GB":31060,"TN":215501,"RNAME":"德安县","MAPTN":"H5010215501","wdd1":"亚热带","wwd2":"","qhq1":0,"qhq2":"","qhq":""}},
{"type":"Feature","geometry":{"type":"Point","coordinates":[116.18685913108123,29.265945434560816]},"properties":{"CODE":226,"GB":31060,"TN":218251,"RNAME":"都昌县","MAPTN":"H5010218251","wdd1":"亚热带","wwd2":"","qhq1":0,"qhq2":"","qhq":""}},
{"type":"Feature","geometry":{"type":"Point","coordinates":[114.04046630860529,29.54511260986459]},"properties":{"CODE":226,"GB":31060,"TN":211821,"RNAME":"崇阳县","MAPTN":"H5009211821","wdd1":"亚热带","wwd2":"","qhq1":0,"qhq2":"","qhq":""}},
{"type":"Feature","geometry":{"type":"Point","coordinates":[119.68643948899152,30.637245179582685]},"properties":{"CODE":226,"GB":31060,"TN":216711,"RNAME":"安吉县","MAPTN":"H5008216711","wdd1":"亚热带","wwd2":"","qhq1":0,"qhq2":"","qhq":""}},
{"type":"Feature","geometry":{"type":"Point","coordinates":[119.95185085911204,30.053176881475974]},"properties":{"CODE":225,"GB":31050,"TN":241691,"RNAME":"富阳区","MAPTN":"H5008241691","wdd1":"亚热带","wwd2":"","qhq1":0,"qhq2":"","qhq":""}},
{"type":"Feature","geometry":{"type":"Point","coordinates":[119.41130827018284,30.894392014567405]},"properties":{"CODE":226,"GB":31060,"TN":205501,"RNAME":"广德县","MAPTN":"H5008205501","wdd1":"亚热带","wwd2":"","qhq1":0,"qhq2":"","qhq":""}},
{"type":"Feature","geometry":{"type":"Point","coordinates":[117.20366668688392,30.697885513319868]},"properties":{"CODE":226,"GB":31060,"TN":207181,"RNAME":"枞阳县","MAPTN":"H5007207181","wdd1":"亚热带","wwd2":"","qhq1":0,"qhq2":"","qhq":""}},
{"type":"Feature","geometry":{"type":"Point","coordinates":[117.01833343516338,30.099674224849394]},"properties":{"CODE":226,"GB":31060,"TN":218761,"RNAME":"东至县","MAPTN":"H5007218761","wdd1":"亚热带","wwd2":"","qhq1":0,"qhq2":"","qhq":""}},
{"type":"Feature","geometry":{"type":"Point","coordinates":[114.14682006837292,30.6283893585214]},"properties":{"CODE":206,"GB":31060,"TN":208881,"RNAME":"东西湖区","MAPTN":"H5005208881","wdd1":"亚热带","wwd2":"","qhq1":0,"qhq2":"","qhq":""}},
{"type":"Feature","geometry":{"type":"Point","coordinates":[114.26898956300552,30.552242279053573]},"properties":{"CODE":206,"GB":31060,"TN":211380,"RNAME":"汉阳区","MAPTN":"H5005211380","wdd1":"亚热带","wwd2":"","qhq1":0,"qhq2":"","qhq":""}},
{"type":"Feature","geometry":{"type":"Point","coordinates":[114.02497100831137,30.585653305054663]},"properties":{"CODE":226,"GB":31060,"TN":210961,"RNAME":"蔡甸区","MAPTN":"H5005210961","wdd1":"亚热带","wwd2":"","qhq1":0,"qhq2":"","qhq":""}},
{"type":"Feature","geometry":{"type":"Point","coordinates":[114.9623184204662,30.093912124633764]},"properties":{"CODE":225,"GB":31050,"TN":200450,"RNAME":"大冶市","MAPTN":"H5005200450","wdd1":"亚热带","wwd2":"","qhq1":0,"qhq2":"","qhq":""}},
{"type":"Feature","geometry":{"type":"Point","coordinates":[114.07760620118388,30.312311172486393]},"properties":{"CODE":206,"GB":31060,"TN":219801,"RNAME":"汉南区","MAPTN":"H5005219801","wdd1":"亚热带","wwd2":"","qhq1":0,"qhq2":"","qhq":""}},
{"type":"Feature","geometry":{"type":"Point","coordinates":[119.56937405755737,31.995450975192547]},"properties":{"CODE":225,"GB":31050,"TN":200851,"RNAME":"丹阳市","MAPTN":"H5004200851","wdd1":"亚热带","wwd2":"","qhq1":0,"qhq2":"","qhq":""}},
{"type":"Feature","geometry":{"type":"Point","coordinates":[118.86891173380677,31.325647354671883]},"properties":{"CODE":226,"GB":31060,"TN":221101,"RNAME":"高淳区","MAPTN":"H5004221101","wdd1":"亚热带","wwd2":"","qhq1":0,"qhq2":"","qhq":""}},
{"type":"Feature","geometry":{"type":"Point","coordinates":[117.45982360755787,31.884147644113096]},"properties":{"CODE":226,"GB":31060,"TN":203311,"RNAME":"肥东县","MAPTN":"H5003203311","wdd1":"亚热带","wwd2":"","qhq1":0,"qhq2":"","qhq":""}},
{"type":"Feature","geometry":{"type":"Point","coordinates":[118.10354613959478,31.71982193012722]},"properties":{"CODE":226,"GB":31060,"TN":206661,"RNAME":"含山县","MAPTN":"H5003206661","wdd1":"亚热带","wwd2":"","qhq1":0,"qhq2":"","qhq":""}},
{"type":"Feature","geometry":{"type":"Point","coordinates":[118.48401641300507,31.557058334684463]},"properties":{"CODE":226,"GB":31060,"TN":211281,"RNAME":"当涂县","MAPTN":"H5003211281","wdd1":"亚热带","wwd2":"","qhq1":0,"qhq2":"","qhq":""}},
{"type":"Feature","geometry":{"type":"Point","coordinates":[118.19200133984013,31.0847263337887]},"properties":{"CODE":226,"GB":31060,"TN":222521,"RNAME":"繁昌县","MAPTN":"H5003222521","wdd1":"亚热带","wwd2":"","qhq1":0,"qhq2":"","qhq":""}},
{"type":"Feature","geometry":{"type":"Point","coordinates":[118.36143493188641,31.715732574755833]},"properties":{"CODE":226,"GB":31060,"TN":207101,"RNAME":"和县","MAPTN":"H5003207101","wdd1":"亚热带","wwd2":"","qhq1":0,"qhq2":"","qhq":""}},
{"type":"Feature","geometry":{"type":"Point","coordinates":[117.15611267057676,31.719514846837725]},"properties":{"CODE":226,"GB":31060,"TN":205191,"RNAME":"肥西县","MAPTN":"H5003205191","wdd1":"亚热带","wwd2":"","qhq1":0,"qhq2":"","qhq":""}},
{"type":"Feature","geometry":{"type":"Point","coordinates":[114.11925506592985,31.56111526489312]},"properties":{"CODE":226,"GB":31060,"TN":211871,"RNAME":"大悟县","MAPTN":"H5001211871","wdd1":"亚热带","wwd2":"","qhq1":0,"qhq2":"","qhq":""}},
{"type":"Feature","geometry":{"type":"Point","coordinates":[111.96217346191409,28.90920639038268]},"properties":{"CODE":226,"GB":31060,"TN":203851,"RNAME":"汉寿县","MAPTN":"H4915203851","wdd1":"亚热带","wwd2":"","qhq1":0,"qhq2":"","qhq":""}},
{"type":"Feature","geometry":{"type":"Point","coordinates":[111.21468353271484,28.382310867311563]},"properties":{"CODE":226,"GB":31060,"TN":214041,"RNAME":"安化县","MAPTN":"H4915214041","wdd1":"亚热带","wwd2":"","qhq1":0,"qhq2":"","qhq":""}},
{"type":"Feature","geometry":{"type":"Point","coordinates":[109.64237976074212,28.71403884887884]},"properties":{"CODE":226,"GB":31060,"TN":205731,"RNAME":"保靖县","MAPTN":"H4914205731","wdd1":"亚热带","wwd2":"","qhq1":0,"qhq2":"","qhq":""}},
{"type":"Feature","geometry":{"type":"Point","coordinates":[109.94413757324216,28.621406555177693]},"properties":{"CODE":226,"GB":31060,"TN":207931,"RNAME":"古丈县","MAPTN":"H4914207931","wdd1":"亚热带","wwd2":"","qhq1":0,"qhq2":"","qhq":""}},
{"type":"Feature","geometry":{"type":"Point","coordinates":[110.18199920654297,28.007888793947423]},"properties":{"CODE":226,"GB":31060,"TN":221851,"RNAME":"辰溪县","MAPTN":"H4914221851","wdd1":"亚热带","wwd2":"","qhq1":0,"qhq2":"","qhq":""}},
{"type":"Feature","geometry":{"type":"Point","coordinates":[108.1147689819251,28.264690399171712]},"properties":{"CODE":226,"GB":31060,"TN":201521,"RNAME":"德江县","MAPTN":"H4913201521","wdd1":"亚热带","wwd2":"","qhq1":0,"qhq2":"","qhq":""}},
{"type":"Feature","geometry":{"type":"Point","coordinates":[111.11865997314453,29.428188323976222]},"properties":{"CODE":226,"GB":31060,"TN":212121,"RNAME":"慈利县","MAPTN":"H4911212121","wdd1":"亚热带","wwd2":"","qhq1":0,"qhq2":"","qhq":""}},
{"type":"Feature","geometry":{"type":"Point","coordinates":[112.16523742675786,29.41734123230142]},"properties":{"CODE":226,"GB":31060,"TN":213421,"RNAME":"安乡县","MAPTN":"H4911213421","wdd1":"亚热带","wwd2":"","qhq1":0,"qhq2":"","qhq":""}},
{"type":"Feature","geometry":{"type":"Point","coordinates":[108.83437347411984,29.538438796998616]},"properties":{"CODE":207,"GB":31061,"TN":210091,"RNAME":"城厢区","MAPTN":"H4909210091","wdd1":"亚热带","wwd2":"","qhq1":0,"qhq2":"","qhq":""}},
{"type":"Feature","geometry":{"type":"Point","coordinates":[113.83039093018267,30.645177841187525]},"properties":{"CODE":226,"GB":31060,"TN":211040,"RNAME":"汉川市","MAPTN":"H4908211040","wdd1":"亚热带","wwd2":"","qhq1":0,"qhq2":"","qhq":""}},
{"type":"Feature","geometry":{"type":"Point","coordinates":[111.78650665283205,30.829980850220757]},"properties":{"CODE":225,"GB":31050,"TN":203781,"RNAME":"当阳市","MAPTN":"H4907203781","wdd1":"亚热带","wwd2":"","qhq1":0,"qhq2":"","qhq":""}},
{"type":"Feature","geometry":{"type":"Point","coordinates":[112.22478485107426,30.06099128723281]},"properties":{"CODE":226,"GB":31060,"TN":225931,"RNAME":"公安县","MAPTN":"H4907225931","wdd1":"亚热带","wwd2":"","qhq1":0,"qhq2":"","qhq":""}},
{"type":"Feature","geometry":{"type":"Point","coordinates":[113.81954956055316,31.617391586304297]},"properties":{"CODE":225,"GB":31050,"TN":210420,"RNAME":"广水市","MAPTN":"H4904210420","wdd1":"亚热带","wwd2":"","qhq1":0,"qhq2":"","qhq":""}},
{"type":"Feature","geometry":{"type":"Point","coordinates":[113.68076324463358,31.260026931763463]},"properties":{"CODE":225,"GB":31050,"TN":220390,"RNAME":"安陆市","MAPTN":"H4904220390","wdd1":"亚热带","wwd2":"","qhq1":0,"qhq2":"","qhq":""}},
{"type":"Feature","geometry":{"type":"Point","coordinates":[111.25430297851562,31.880378723145053]},"properties":{"CODE":226,"GB":31060,"TN":203061,"RNAME":"保康县","MAPTN":"H4903203061","wdd1":"亚热带","wwd2":"","qhq1":0,"qhq2":"","qhq":""}},
{"type":"Feature","geometry":{"type":"Point","coordinates":[112.1965026855469,31.043416976929638]},"properties":{"CODE":206,"GB":31060,"TN":224220,"RNAME":"东宝区","MAPTN":"H4903224220","wdd1":"亚热带","wwd2":"","qhq1":0,"qhq2":"","qhq":""}},
{"type":"Feature","geometry":{"type":"Point","coordinates":[109.5239028930663,31.045425415039993]},"properties":{"CODE":226,"GB":31060,"TN":217541,"RNAME":"奉节县","MAPTN":"H4902217541","wdd1":"亚热带","wwd2":"","qhq1":0,"qhq2":"","qhq":""}},
{"type":"Feature","geometry":{"type":"Point","coordinates":[110.39923095703126,31.033864974976527]},"properties":{"CODE":206,"GB":31060,"TN":218681,"RNAME":"巴东县","MAPTN":"H4902218681","wdd1":"亚热带","wwd2":"","qhq1":0,"qhq2":"","qhq":""}},
{"type":"Feature","geometry":{"type":"Point","coordinates":[108.6590118408185,31.949424743652816]},"properties":{"CODE":226,"GB":31060,"TN":201881,"RNAME":"城口县","MAPTN":"H4901201881","wdd1":"亚热带","wwd2":"","qhq1":0,"qhq2":"","qhq":""}},
{"type":"Feature","geometry":{"type":"Point","coordinates":[107.5951156615969,28.88904762268177]},"properties":{"CODE":226,"GB":31060,"TN":204991,"RNAME":"道真仡佬族苗族自治县","MAPTN":"H4816204991","wdd1":"亚热带","wwd2":"","qhq1":0,"qhq2":"","qhq":""}},
{"type":"Feature","geometry":{"type":"Point","coordinates":[105.69489288303757,28.593225479110366]},"properties":{"CODE":205,"GB":31050,"TN":211280,"RNAME":"赤水市","MAPTN":"H4815211280","wdd1":"亚热带","wwd2":"","qhq1":0,"qhq2":"","qhq":""}},
{"type":"Feature","geometry":{"type":"Point","coordinates":[105.8349990842396,28.808540344226586]},"properties":{"CODE":226,"GB":31060,"TN":206451,"RNAME":"合江县","MAPTN":"H4815206451","wdd1":"亚热带","wwd2":"","qhq1":0,"qhq2":"","qhq":""}},
{"type":"Feature","geometry":{"type":"Point","coordinates":[105.8093643185905,28.04167366026184]},"properties":{"CODE":226,"GB":31060,"TN":225051,"RNAME":"古蔺县","MAPTN":"H4815225051","wdd1":"亚热带","wwd2":"","qhq1":0,"qhq2":"","qhq":""}},
{"type":"Feature","geometry":{"type":"Point","coordinates":[104.56262969953909,28.39516067499526]},"properties":{"CODE":226,"GB":31060,"TN":250171,"RNAME":"高县","MAPTN":"H4814250171","wdd1":"亚热带","wwd2":"","qhq1":0,"qhq2":"","qhq":""}},
{"type":"Feature","geometry":{"type":"Point","coordinates":[104.78703308077465,28.38022232051099]},"properties":{"CODE":226,"GB":31060,"TN":250181,"RNAME":"珙县","MAPTN":"H4814250181","wdd1":"亚热带","wwd2":"","qhq1":0,"qhq2":"","qhq":""}},
{"type":"Feature","geometry":{"type":"Point","coordinates":[102.7714157204932,28.972391128792452]},"properties":{"CODE":226,"GB":31060,"TN":216531,"RNAME":"甘洛县","MAPTN":"H4813216531","wdd1":"亚热带","wwd2":"","qhq1":0,"qhq2":"","qhq":""}},
{"type":"Feature","geometry":{"type":"Point","coordinates":[106.51875305164202,29.385082244870425]},"properties":{"CODE":226,"GB":31060,"TN":213561,"RNAME":"巴南区","MAPTN":"H4812213561","wdd1":"亚热带","wwd2":"","qhq1":0,"qhq2":"","qhq":""}},
{"type":"Feature","geometry":{"type":"Point","coordinates":[107.71810913084097,29.88263320922955]},"properties":{"CODE":226,"GB":31060,"TN":202171,"RNAME":"丰都县","MAPTN":"H4812202171","wdd1":"亚热带","wwd2":"","qhq1":0,"qhq2":"","qhq":""}},
{"type":"Feature","geometry":{"type":"Point","coordinates":[106.43398284899972,29.82818412780519]},"properties":{"CODE":226,"GB":31060,"TN":205321,"RNAME":"北碚区","MAPTN":"H4811205321","wdd1":"亚热带","wwd2":"","qhq1":0,"qhq2":"","qhq":""}},
{"type":"Feature","geometry":{"type":"Point","coordinates":[105.71691894509675,29.700954437247972]},"properties":{"CODE":226,"GB":31060,"TN":209211,"RNAME":"大足区","MAPTN":"H4811209211","wdd1":"亚热带","wwd2":"","qhq1":0,"qhq2":"","qhq":""}},
{"type":"Feature","geometry":{"type":"Point","coordinates":[106.2240982054129,29.595375061030943]},"properties":{"CODE":226,"GB":31060,"TN":212741,"RNAME":"璧山区","MAPTN":"H4811212741","wdd1":"亚热带","wwd2":"","qhq1":0,"qhq2":"","qhq":""}},
{"type":"Feature","geometry":{"type":"Point","coordinates":[106.48457336413857,29.481222152707268]},"properties":{"CODE":226,"GB":31060,"TN":215671,"RNAME":"大渡口区","MAPTN":"H4811215671","wdd1":"亚热带","wwd2":"","qhq1":0,"qhq2":"","qhq":""}},
{"type":"Feature","geometry":{"type":"Point","coordinates":[104.99614715552515,29.181911468483705]},"properties":{"CODE":226,"GB":31060,"TN":225411,"RNAME":"富顺县","MAPTN":"H4810225411","wdd1":"亚热带","wwd2":"","qhq1":0,"qhq2":"","qhq":""}},
{"type":"Feature","geometry":{"type":"Point","coordinates":[104.71170043936495,29.349267959574373]},"properties":{"CODE":227,"GB":31061,"TN":225440,"RNAME":"贡井区","MAPTN":"H4810225440","wdd1":"亚热带","wwd2":"","qhq1":0,"qhq2":"","qhq":""}},
{"type":"Feature","geometry":{"type":"Point","coordinates":[103.4853820835993,29.602104187112328]},"properties":{"CODE":225,"GB":31050,"TN":250101,"RNAME":"峨眉山市","MAPTN":"H4809250101","wdd1":"亚热带","wwd2":"","qhq1":0,"qhq2":"","qhq":""}},
{"type":"Feature","geometry":{"type":"Point","coordinates":[102.67874909682308,29.347051620907937]},"properties":{"CODE":226,"GB":31060,"TN":250131,"RNAME":"汉源县","MAPTN":"H4809250131","wdd1":"亚热带","wwd2":"","qhq1":0,"qhq2":"","qhq":""}},
{"type":"Feature","geometry":{"type":"Point","coordinates":[103.26125336173374,29.23194694529691]},"properties":{"CODE":226,"GB":31060,"TN":250180,"RNAME":"峨边彝族自治县","MAPTN":"H4809250180","wdd1":"亚热带","wwd2":"","qhq1":0,"qhq2":"","qhq":""}},
{"type":"Feature","geometry":{"type":"Point","coordinates":[107.20178222652092,30.737596511841144]},"properties":{"CODE":226,"GB":31060,"TN":206511,"RNAME":"大竹县","MAPTN":"H4808206511","wdd1":"亚热带","wwd2":"","qhq1":0,"qhq2":"","qhq":""}},
{"type":"Feature","geometry":{"type":"Point","coordinates":[107.3488159179345,30.334274291992724]},"properties":{"CODE":226,"GB":31060,"TN":218011,"RNAME":"垫江县","MAPTN":"H4808218011","wdd1":"亚热带","wwd2":"","qhq1":0,"qhq2":"","qhq":""}},
{"type":"Feature","geometry":{"type":"Point","coordinates":[105.33315277080283,30.10324287413941]},"properties":{"CODE":226,"GB":31060,"TN":221041,"RNAME":"安岳县","MAPTN":"H4807221041","wdd1":"亚热带","wwd2":"","qhq1":0,"qhq2":"","qhq":""}},
{"type":"Feature","geometry":{"type":"Point","coordinates":[105.04911041254532,30.632980346684345]},"properties":{"CODE":207,"GB":31061,"TN":206721,"RNAME":"仓山区","MAPTN":"H4807206721","wdd1":"亚热带","wwd2":"","qhq1":0,"qhq2":"","qhq":""}},
{"type":"Feature","geometry":{"type":"Point","coordinates":[106.10237884507688,30.7741718292223]},"properties":{"CODE":207,"GB":31061,"TN":206071,"RNAME":"高坪区","MAPTN":"H4807206071","wdd1":"亚热带","wwd2":"","qhq1":0,"qhq2":"","qhq":""}},
{"type":"Feature","geometry":{"type":"Point","coordinates":[106.26662445054377,30.001688003537087]},"properties":{"CODE":225,"GB":31050,"TN":224991,"RNAME":"合川区","MAPTN":"H4807224991","wdd1":"亚热带","wwd2":"","qhq1":0,"qhq2":"","qhq":""}},
{"type":"Feature","geometry":{"type":"Point","coordinates":[104.28034973250134,30.98209571845079]},"properties":{"CODE":225,"GB":31050,"TN":201531,"RNAME":"广汉市","MAPTN":"H4806201531","wdd1":"亚热带","wwd2":"","qhq1":0,"qhq2":"","qhq":""}},
{"type":"Feature","geometry":{"type":"Point","coordinates":[103.6715774569283,30.629787445236392]},"properties":{"CODE":225,"GB":31050,"TN":207791,"RNAME":"崇州市","MAPTN":"H4806207791","wdd1":"亚热带","wwd2":"","qhq1":0,"qhq2":"","qhq":""}},
{"type":"Feature","geometry":{"type":"Point","coordinates":[103.51952362489955,30.58919143698224]},"properties":{"CODE":226,"GB":31060,"TN":209651,"RNAME":"大邑县","MAPTN":"H4806209651","wdd1":"亚热带","wwd2":"","qhq1":0,"qhq2":"","qhq":""}},
{"type":"Feature","geometry":{"type":"Point","coordinates":[103.51103210825086,30.01879119887721]},"properties":{"CODE":226,"GB":31060,"TN":223231,"RNAME":"丹棱县","MAPTN":"H4806223231","wdd1":"亚热带","wwd2":"","qhq1":0,"qhq2":"","qhq":""}},
{"type":"Feature","geometry":{"type":"Point","coordinates":[102.81380463877586,30.372552872308813]},"properties":{"CODE":206,"GB":31060,"TN":203751,"RNAME":"宝兴县","MAPTN":"H4805203751","wdd1":"亚热带","wwd2":"","qhq1":0,"qhq2":"","qhq":""}},
{"type":"Feature","geometry":{"type":"Point","coordinates":[105.93132781971804,31.733995437624795]},"properties":{"CODE":226,"GB":31060,"TN":206311,"RNAME":"苍溪县","MAPTN":"H4803206311","wdd1":"亚热带","wwd2":"","qhq1":0,"qhq2":"","qhq":""}},
{"type":"Feature","geometry":{"type":"Point","coordinates":[103.62081146640678,31.001607895121904]},"properties":{"CODE":225,"GB":31050,"TN":215581,"RNAME":"都江堰市","MAPTN":"H4802215581","wdd1":"亚热带","wwd2":"","qhq1":0,"qhq2":"","qhq":""}},
{"type":"Feature","geometry":{"type":"Point","coordinates":[104.45013427835764,31.826093673786204]},"properties":{"CODE":226,"GB":31060,"TN":202001,"RNAME":"北川羌族自治县","MAPTN":"H4802202001","wdd1":"亚热带","wwd2":"","qhq1":0,"qhq2":"","qhq":""}},
{"type":"Feature","geometry":{"type":"Point","coordinates":[104.73070526162694,31.484483718910727]},"properties":{"CODE":206,"GB":31060,"TN":219850,"RNAME":"涪城区","MAPTN":"H4802219850","wdd1":"亚热带","wwd2":"","qhq1":0,"qhq2":"","qhq":""}},
{"type":"Feature","geometry":{"type":"Point","coordinates":[99.28647658943628,28.717063930250735]},"properties":{"CODE":226,"GB":31060,"TN":201301,"RNAME":"得荣县","MAPTN":"H4715201301","wdd1":"","wwd2":"","qhq1":0,"qhq2":"","qhq":"半干旱区"}},
{"type":"Feature","geometry":{"type":"Point","coordinates":[98.9098135384017,28.48951343355335]},"properties":{"CODE":226,"GB":31060,"TN":202491,"RNAME":"德钦县","MAPTN":"H4714202491","wdd1":"亚热带","wwd2":"","qhq1":0,"qhq2":"","qhq":"半干旱区"}},
{"type":"Feature","geometry":{"type":"Point","coordinates":[97.46714210765127,28.66509641884445]},"properties":{"CODE":206,"GB":31060,"TN":200901,"RNAME":"察隅县","MAPTN":"H4713200901","wdd1":"亚热带","wwd2":"","qhq1":0,"qhq2":"","qhq":""}},
{"type":"Feature","geometry":{"type":"Point","coordinates":[100.2955018962629,29.03783036269706]},"properties":{"CODE":206,"GB":31060,"TN":203891,"RNAME":"稻城县","MAPTN":"H4711203891","wdd1":"亚热带","wwd2":"","qhq1":0,"qhq2":"","qhq":""}},
{"type":"Feature","geometry":{"type":"Point","coordinates":[101.11997233227277,30.985292441034264]},"properties":{"CODE":226,"GB":31060,"TN":200031,"RNAME":"道孚县","MAPTN":"H4708200031","wdd1":"亚热带","wwd2":"","qhq1":0,"qhq2":"","qhq":""}},
{"type":"Feature","geometry":{"type":"Point","coordinates":[101.8816833936725,30.877328875219415]},"properties":{"CODE":206,"GB":31060,"TN":200871,"RNAME":"丹巴县","MAPTN":"H4708200871","wdd1":"亚热带","wwd2":"","qhq1":0,"qhq2":"","qhq":""}},
{"type":"Feature","geometry":{"type":"Point","coordinates":[99.10703337830913,30.007507364694092]},"properties":{"CODE":226,"GB":31060,"TN":202441,"RNAME":"巴塘县","MAPTN":"H4707202441","wdd1":"","wwd2":"","qhq1":0,"qhq2":"","qhq":"半干旱区"}},
{"type":"Feature","geometry":{"type":"Point","coordinates":[98.27053961148307,30.861515141017104]},"properties":{"CODE":206,"GB":31060,"TN":200841,"RNAME":"贡觉县","MAPTN":"H4706200841","wdd1":"亚热带","wwd2":"","qhq1":0,"qhq2":"","qhq":""}},
{"type":"Feature","geometry":{"type":"Point","coordinates":[97.56625579087444,30.65517632872622]},"properties":{"CODE":226,"GB":31060,"TN":202021,"RNAME":"察雅县","MAPTN":"H4706202021","wdd1":"亚热带","wwd2":"","qhq1":0,"qhq2":"","qhq":""}},
{"type":"Feature","geometry":{"type":"Point","coordinates":[96.91813979250276,30.055530803839144]},"properties":{"CODE":206,"GB":31060,"TN":208791,"RNAME":"八宿县","MAPTN":"H4705208791","wdd1":"亚热带","wwd2":"","qhq1":0,"qhq2":"","qhq":""}},
{"type":"Feature","geometry":{"type":"Point","coordinates":[99.98961672538849,31.624860786305568]},"properties":{"CODE":226,"GB":31060,"TN":202091,"RNAME":"甘孜县","MAPTN":"H4703202091","wdd1":"亚热带","wwd2":"","qhq1":0,"qhq2":"","qhq":""}},
{"type":"Feature","geometry":{"type":"Point","coordinates":[98.82656945879715,31.21160131968259]},"properties":{"CODE":226,"GB":31060,"TN":205661,"RNAME":"白玉县","MAPTN":"H4702205661","wdd1":"亚热带","wwd2":"","qhq1":0,"qhq2":"","qhq":""}},
{"type":"Feature","geometry":{"type":"Point","coordinates":[98.58269610749787,31.805458151658552]},"properties":{"CODE":226,"GB":31060,"TN":201541,"RNAME":"德格县","MAPTN":"H4702201541","wdd1":"亚热带","wwd2":"","qhq1":0,"qhq2":"","qhq":""}},
{"type":"Feature","geometry":{"type":"Point","coordinates":[91.43251897640258,28.442340851126787]},"properties":{"CODE":226,"GB":31060,"TN":204531,"RNAME":"措美县","MAPTN":"H4613204531","wdd1":"高寒区","wwd2":"","qhq1":0,"qhq2":"","qhq":""}},
{"type":"Feature","geometry":{"type":"Point","coordinates":[95.77101810035101,29.863974198823293]},"properties":{"CODE":226,"GB":31060,"TN":201200,"RNAME":"波密县","MAPTN":"H4612201200","wdd1":"亚热带","wwd2":"","qhq1":0,"qhq2":"","qhq":""}},
{"type":"Feature","geometry":{"type":"Point","coordinates":[93.2398754918776,29.88973158727424]},"properties":{"CODE":206,"GB":31060,"TN":200550,"RNAME":"工布江达县","MAPTN":"H4611200550","wdd1":"亚热带","wwd2":"","qhq1":0,"qhq2":"","qhq":""}},
{"type":"Feature","geometry":{"type":"Point","coordinates":[90.98429237299021,29.294102680503823]},"properties":{"CODE":206,"GB":31060,"TN":204351,"RNAME":"贡嘎县","MAPTN":"H4609204351","wdd1":"高寒区","wwd2":"","qhq1":0,"qhq2":"","qhq":""}},
{"type":"Feature","geometry":{"type":"Point","coordinates":[91.0241796133295,29.657099815272204]},"properties":{"CODE":226,"GB":31060,"TN":202101,"RNAME":"堆龙德庆县","MAPTN":"H4609202101","wdd1":"高寒区","wwd2":"","qhq1":0,"qhq2":"","qhq":""}},
{"type":"Feature","geometry":{"type":"Point","coordinates":[91.35788281514654,29.67462087866168]},"properties":{"CODE":226,"GB":31060,"TN":202531,"RNAME":"达孜区","MAPTN":"H4609202531","wdd1":"高寒区","wwd2":"","qhq1":0,"qhq2":"","qhq":""}},
{"type":"Feature","geometry":{"type":"Point","coordinates":[94.70490163225023,30.937470814676708]},"properties":{"CODE":206,"GB":31060,"TN":200461,"RNAME":"边坝县","MAPTN":"H4608200461","wdd1":"亚热带","wwd2":"","qhq1":0,"qhq2":"","qhq":""}},
{"type":"Feature","geometry":{"type":"Point","coordinates":[91.09668438425071,30.486070030993176]},"properties":{"CODE":206,"GB":31060,"TN":201091,"RNAME":"当雄县","MAPTN":"H4605201091","wdd1":"高寒区","wwd2":"","qhq1":0,"qhq2":"","qhq":""}},
{"type":"Feature","geometry":{"type":"Point","coordinates":[95.59471990732014,31.41753273539729]},"properties":{"CODE":226,"GB":31060,"TN":203291,"RNAME":"丁青县","MAPTN":"H4604203291","wdd1":"亚热带","wwd2":"高寒区","qhq1":0,"qhq2":"","qhq":""}},
{"type":"Feature","geometry":{"type":"Point","coordinates":[94.03681170235798,31.92741996609694]},"properties":{"CODE":206,"GB":31060,"TN":200731,"RNAME":"巴青县","MAPTN":"H4603200731","wdd1":"高寒区","wwd2":"","qhq1":0,"qhq2":"","qhq":""}},
{"type":"Feature","geometry":{"type":"Point","coordinates":[93.68388758805814,31.47950819222356]},"properties":{"CODE":226,"GB":31060,"TN":205581,"RNAME":"比如县","MAPTN":"H4603205581","wdd1":"亚热带","wwd2":"高寒区","qhq1":0,"qhq2":"","qhq":""}},
{"type":"Feature","geometry":{"type":"Point","coordinates":[90.01732346572592,31.365664763943077]},"properties":{"CODE":206,"GB":31060,"TN":203541,"RNAME":"班戈县","MAPTN":"H4601203541","wdd1":"高寒区","wwd2":"","qhq1":0,"qhq2":"","qhq":""}},
{"type":"Feature","geometry":{"type":"Point","coordinates":[88.51757444081709,28.27822509710166]},"properties":{"CODE":226,"GB":31060,"TN":203221,"RNAME":"岗巴县","MAPTN":"H4516203221","wdd1":"高寒区","wwd2":"","qhq1":0,"qhq2":"","qhq":""}},
{"type":"Feature","geometry":{"type":"Point","coordinates":[87.11974872040216,28.662075364396866]},"properties":{"CODE":226,"GB":31060,"TN":201701,"RNAME":"定日县","MAPTN":"H4515201701","wdd1":"高寒区","wwd2":"","qhq1":0,"qhq2":"","qhq":""}},
{"type":"Feature","geometry":{"type":"Point","coordinates":[87.76958873252748,28.36793348395462]},"properties":{"CODE":206,"GB":31060,"TN":204451,"RNAME":"定结县","MAPTN":"H4515204451","wdd1":"高寒区","wwd2":"","qhq1":0,"qhq2":"","qhq":""}},
{"type":"Feature","geometry":{"type":"Point","coordinates":[89.26116231934597,29.104748383520963]},"properties":{"CODE":206,"GB":31060,"TN":206530,"RNAME":"白朗县","MAPTN":"H4512206530","wdd1":"高寒区","wwd2":"","qhq1":0,"qhq2":"","qhq":""}},
{"type":"Feature","geometry":{"type":"Point","coordinates":[87.237423091687,29.29369885784086]},"properties":{"CODE":206,"GB":31060,"TN":202710,"RNAME":"昂仁县","MAPTN":"H4511202710","wdd1":"高寒区","wwd2":"","qhq1":0,"qhq2":"","qhq":""}},
{"type":"Feature","geometry":{"type":"Point","coordinates":[85.1660067184319,31.0215566886133]},"properties":{"CODE":206,"GB":31060,"TN":206581,"RNAME":"措勤县","MAPTN":"H4501206581","wdd1":"高寒区","wwd2":"","qhq1":0,"qhq2":"","qhq":""}},
{"type":"Feature","geometry":{"type":"Point","coordinates":[121.15093221842562,27.838918689060915]},"properties":{"CODE":226,"GB":31060,"TN":207051,"RNAME":"洞头区","MAPTN":"G5101207051","wdd1":"亚热带","wwd2":"","qhq1":0,"qhq2":"","qhq":""}},
{"type":"Feature","geometry":{"type":"Point","coordinates":[120.39517971016788,27.50552558958848]},"properties":{"CODE":226,"GB":31060,"TN":217991,"RNAME":"苍南县","MAPTN":"G5101217991","wdd1":"亚热带","wwd2":"","qhq1":0,"qhq2":"","qhq":""}},
{"type":"Feature","geometry":{"type":"Point","coordinates":[120.20945736760488,27.33340835594172]},"properties":{"CODE":225,"GB":31050,"TN":222561,"RNAME":"福鼎市","MAPTN":"G5101222561","wdd1":"亚热带","wwd2":"","qhq1":0,"qhq2":"","qhq":""}},
{"type":"Feature","geometry":{"type":"Point","coordinates":[116.6907501224532,24.355020522994433]},"properties":{"CODE":226,"GB":31060,"TN":217391,"RNAME":"大埔县","MAPTN":"G5014217391","wdd1":"亚热带","wwd2":"","qhq1":0,"qhq2":"","qhq":""}},
{"type":"Feature","geometry":{"type":"Point","coordinates":[115.02258300787773,24.77833557128639]},"properties":{"CODE":226,"GB":31060,"TN":204391,"RNAME":"定南县","MAPTN":"G5013204391","wdd1":"亚热带","wwd2":"","qhq1":0,"qhq2":"","qhq":""}},
{"type":"Feature","geometry":{"type":"Point","coordinates":[114.93276214605174,24.442098617551732]},"properties":{"CODE":226,"GB":31060,"TN":211871,"RNAME":"和平县","MAPTN":"G5013211871","wdd1":"亚热带","wwd2":"","qhq1":0,"qhq2":"","qhq":""}},
{"type":"Feature","geometry":{"type":"Point","coordinates":[119.10733031785982,25.456295012753042]},"properties":{"CODE":224,"GB":31061,"TN":212340,"RNAME":"涵江区","MAPTN":"G5012212340","wdd1":"亚热带","wwd2":"","qhq1":0,"qhq2":"","qhq":""}},
{"type":"Feature","geometry":{"type":"Point","coordinates":[117.84415435815436,25.694835662616967]},"properties":{"CODE":226,"GB":31060,"TN":206311,"RNAME":"大田县","MAPTN":"G5011206311","wdd1":"亚热带","wwd2":"","qhq1":0,"qhq2":"","qhq":""}},
{"type":"Feature","geometry":{"type":"Point","coordinates":[118.23950195281127,25.494249343530726]},"properties":{"CODE":226,"GB":31060,"TN":210681,"RNAME":"德化县","MAPTN":"G5011210681","wdd1":"亚热带","wwd2":"","qhq1":0,"qhq2":"","qhq":""}},
{"type":"Feature","geometry":{"type":"Point","coordinates":[118.1819458006276,25.058763503667073]},"properties":{"CODE":226,"GB":31060,"TN":221301,"RNAME":"安溪县","MAPTN":"G5011221301","wdd1":"亚热带","wwd2":"","qhq1":0,"qhq2":"","qhq":""}},
{"type":"Feature","geometry":{"type":"Point","coordinates":[115.01058197028202,25.866790771482446]},"properties":{"CODE":226,"GB":31060,"TN":204241,"RNAME":"赣县区","MAPTN":"G5009204241","wdd1":"亚热带","wwd2":"","qhq1":0,"qhq2":"","qhq":""}},
{"type":"Feature","geometry":{"type":"Point","coordinates":[114.29953002931653,25.696138381959596]},"properties":{"CODE":226,"GB":31060,"TN":208011,"RNAME":"崇义县","MAPTN":"G5009208011","wdd1":"亚热带","wwd2":"","qhq1":0,"qhq2":"","qhq":""}},
{"type":"Feature","geometry":{"type":"Point","coordinates":[114.35681152345919,25.396715164186]},"properties":{"CODE":226,"GB":31060,"TN":214801,"RNAME":"大余县","MAPTN":"G5009214801","wdd1":"亚热带","wwd2":"","qhq1":0,"qhq2":"","qhq":""}},
{"type":"Feature","geometry":{"type":"Point","coordinates":[115.38774871837306,25.13738059996825]},"properties":{"CODE":226,"GB":31060,"TN":223121,"RNAME":"安远县","MAPTN":"G5009223121","wdd1":"亚热带","wwd2":"","qhq1":0,"qhq2":"","qhq":""}},
{"type":"Feature","geometry":{"type":"Point","coordinates":[118.73856353510033,26.580526351592315]},"properties":{"CODE":226,"GB":31060,"TN":209551,"RNAME":"古田县","MAPTN":"G5008209551","wdd1":"亚热带","wwd2":"","qhq1":0,"qhq2":"","qhq":""}},
{"type":"Feature","geometry":{"type":"Point","coordinates":[116.32008361846987,26.839469909639675]},